,id,address,price,bedrooms,bathrooms,square_feet,city,zipcode,state,lat,lon,SHAPE
0,2,"1200 Matamoros St Mission, TX 78572 Mission, TX 78572 Mission, TX 78572 Mission, TX 78572",179900,3,2,1627,Mission,78572,TX,26.2083479671799,-98.3146725324614,"{'x': -98.31489212499997, 'y': 26.20844496500007, 'spatialReference': {'wkid': 4326, 'latestWkid': 4326}}"
1,3,"3303 Santa Erica St Mission, TX 78572 Mission, TX 78572 Mission, TX 78572 Mission, TX 78572",249000,4,4,3066,Mission,78572,TX,26.1703693557091,-98.3034011975389,"{'x': -98.30307634399998, 'y': 26.172522010000023, 'spatialReference': {'wkid': 4326, 'latestWkid': 4326}}"
2,4,"1406 Colosios Mission, TX 78572 Mission, TX 78572 Mission, TX 78572 Mission, TX 78572",305000,4,5,3324,Mission,78572,TX,26.1893232094464,-98.3107733818673,"{'x': -98.31053067499994, 'y': 26.189263854000046, 'spatialReference': {'wkid': 4326, 'latestWkid': 4326}}"
3,5,"1001 Burney St Mission, TX 78572 Mission, TX 78572 Mission, TX 78572 Mission, TX 78572",130000,3,2,1806,Mission,78572,TX,26.2186216470884,-98.3372837992595,"{'x': -98.33711790299998, 'y': 26.218410275000053, 'spatialReference': {'wkid': 4326, 'latestWkid': 4326}}"
4,6,"1206 Flamingo Ave Mission, TX 78572 Mission, TX 78572 Mission, TX 78572 Mission, TX 78572",170000,4,3,2808,Mission,78572,TX,26.2126903861037,-98.2870018838708,"{'x': -98.28683017399999, 'y': 26.213496736000025, 'spatialReference': {'wkid': 4326, 'latestWkid': 4326}}"
5,7,"1807 Tierra Dorada Blvd Mission, TX 78572 Mission, TX 78572 Mission, TX 78572 Mission, TX 78572",135500,3,2,1318,Mission,78572,TX,26.2104090321158,-98.3478923991713,"{'x': -98.34787515499994, 'y': 26.210575667000057, 'spatialReference': {'wkid': 4326, 'latestWkid': 4326}}"
6,8,"2013 Peace Ave Mission, TX 78572 Mission, TX 78572 Mission, TX 78572 Mission, TX 78572",119900,4,2,1745,Mission,78572,TX,26.2267039167181,-98.3285350843114,"{'x': -98.32830876599996, 'y': 26.227702519000047, 'spatialReference': {'wkid': 4326, 'latestWkid': 4326}}"
7,9,"1201 Lucksinger Rd Mission, TX 78572 Mission, TX 78572 Mission, TX 78572 Mission, TX 78572",189000,3,4,2268,Mission,78572,TX,26.2142090793695,-98.2964060535503,"{'x': -98.29609801199996, 'y': 26.214166383000077, 'spatialReference': {'wkid': 4326, 'latestWkid': 4326}}"
8,10,"2213 Hackberry Mission, TX 78572 Mission, TX 78572 Mission, TX 78572 Mission, TX 78572",279850,4,3,3292,Mission,78572,TX,26.2213741025957,-98.2812557232766,"{'x': -98.28116164299996, 'y': 26.22158293800004, 'spatialReference': {'wkid': 4326, 'latestWkid': 4326}}"
9,11,"2402 San Alejandro Mission, TX 78572 Mission, TX 78572 Mission, TX 78572 Mission, TX 78572",479000,6,7,5484,Mission,78572,TX,26.1760146840621,-98.3044812806162,"{'x': -98.30501434699994, 'y': 26.176479047000043, 'spatialReference': {'wkid': 4326, 'latestWkid': 4326}}"
10,12,"2503 Brentwood Dr Mission, TX 78572 Mission, TX 78572 Mission, TX 78572 Mission, TX 78572",199900,4,3,1900,Mission,78572,TX,26.2132562093608,-98.2802187739935,"{'x': -98.28043407799998, 'y': 26.213373798000077, 'spatialReference': {'wkid': 4326, 'latestWkid': 4326}}"
11,13,"1710 Jonathon Dr Mission, TX 78572 Mission, TX 78572 Mission, TX 78572 Mission, TX 78572",279000,3,4,2488,Mission,78572,TX,26.1939731902625,-98.3017878679544,"{'x': -98.30175393199994, 'y': 26.19417175800004, 'spatialReference': {'wkid': 4326, 'latestWkid': 4326}}"
12,14,"4109 Santa Maria St Mission, TX 78572 Mission, TX 78572 Mission, TX 78572 Mission, TX 78572",239900,4,4,3416,Mission,78572,TX,26.1621021523157,-98.3006204630378,"{'x': -98.30350131599994, 'y': 26.16336835800007, 'spatialReference': {'wkid': 4326, 'latestWkid': 4326}}"
13,15,"403 Venus St Mission, TX 78572 Mission, TX 78572 Mission, TX 78572 Mission, TX 78572",98000,2,2,1132,Mission,78572,TX,26.2067582090146,-98.3036854883401,"{'x': -98.30389186799994, 'y': 26.205567087000077, 'spatialReference': {'wkid': 4326, 'latestWkid': 4326}}"
14,16,"2431 Christina Ave Mission, TX 78572 Mission, TX 78572 Mission, TX 78572 Mission, TX 78572",245000,3,4,2116,Mission,78572,TX,26.2045545525338,-98.2839351655591,"{'x': -98.28424799999999, 'y': 26.204498475000037, 'spatialReference': {'wkid': 4326, 'latestWkid': 4326}}"
15,17,"7464 Floyd Dr Mission, TX 78572 Mission, TX 78572 Mission, TX 78572 Mission, TX 78572",105000,2,2,1127,Mission,78572,TX,26.244817135886,-98.4152691957154,"{'x': -98.41519616499994, 'y': 26.24480480300008, 'spatialReference': {'wkid': 4326, 'latestWkid': 4326}}"
16,18,"3900 El Jardin Mission, TX 78572 Mission, TX 78572 Mission, TX 78572 Mission, TX 78572",339000,4,5,3002,Mission,78572,TX,26.1715582791583,-98.289074725632,"{'x': -98.28899564099999, 'y': 26.171317318000035, 'spatialReference': {'wkid': 4326, 'latestWkid': 4326}}"
17,19,"909 Red River St Mission, TX 78572 Mission, TX 78572 Mission, TX 78572 Mission, TX 78572",217500,4,3,2287,Mission,78572,TX,26.1938485081301,-98.2971464761014,"{'x': -98.29735144099999, 'y': 26.193931617000032, 'spatialReference': {'wkid': 4326, 'latestWkid': 4326}}"
18,20,"3706 Bouganvilla St Mission, TX 78572 Mission, TX 78572 Mission, TX 78572 Mission, TX 78572",199900,5,4,3657,Mission,78572,TX,26.2280628113049,-98.3767135906025,"{'x': -98.41040179299995, 'y': 26.234780828000055, 'spatialReference': {'wkid': 4326, 'latestWkid': 4326}}"
19,21,"2808 Santa Esperanza Mission, TX 78572 Mission, TX 78572 Mission, TX 78572 Mission, TX 78572",415000,4,6,4393,Mission,78572,TX,26.1733989164964,-98.2901288217277,"{'x': -98.28998713199996, 'y': 26.173529873000064, 'spatialReference': {'wkid': 4326, 'latestWkid': 4326}}"
20,22,"1204 Elm St Mission, TX 78572 Mission, TX 78572 Mission, TX 78572 Mission, TX 78572",176900,3,2,1758,Mission,78572,TX,26.2164073278787,-98.3112143889297,"{'x': -98.31044581599997, 'y': 26.216353689000073, 'spatialReference': {'wkid': 4326, 'latestWkid': 4326}}"
21,23,"3005 Santa Monica Mission, TX 78572 Mission, TX 78572 Mission, TX 78572 Mission, TX 78572",303900,4,4,3075,Mission,78572,TX,26.2280628113049,-98.3767135906025,"{'x': -98.30112092699994, 'y': 26.172581836000063, 'spatialReference': {'wkid': 4326, 'latestWkid': 4326}}"
22,24,"417 Rio Grande Dr Mission, TX 78572 Mission, TX 78572 Mission, TX 78572 Mission, TX 78572",269000,5,4,3488,Mission,78572,TX,26.1879728609773,-98.3005786558115,"{'x': -98.30054653399998, 'y': 26.187802721000025, 'spatialReference': {'wkid': 4326, 'latestWkid': 4326}}"
23,25,"817 Rankin St Mission, TX 78572 Mission, TX 78572 Mission, TX 78572 Mission, TX 78572",130000,3,2,1657,Mission,78572,TX,26.2255630248441,-98.3343570086049,"{'x': -98.33429334799996, 'y': 26.225624725000046, 'spatialReference': {'wkid': 4326, 'latestWkid': 4326}}"
24,26,"1715 Palazzo Mission, TX 78572 Mission, TX 78572 Mission, TX 78572 Mission, TX 78572",1495000,6,7,8793,Mission,78572,TX,26.187118666879,-98.3029571160888,"{'x': -98.30313623999996, 'y': 26.18760874700007, 'spatialReference': {'wkid': 4326, 'latestWkid': 4326}}"
25,27,"3400 Santa Susana St Mission, TX 78572 Mission, TX 78572 Mission, TX 78572 Mission, TX 78572",238000,4,3,3132,Mission,78572,TX,26.1689636962816,-98.2990488176861,"{'x': -98.29880983599998, 'y': 26.168931932000078, 'spatialReference': {'wkid': 4326, 'latestWkid': 4326}}"
26,28,"1818 Crown Pointe Blvd Mission, TX 78572 Mission, TX 78572 Mission, TX 78572 Mission, TX 78572",167900,4,2,1587,Mission,78572,TX,26.2187523460509,-98.2948814681073,"{'x': -98.29346523599997, 'y': 26.218664656000044, 'spatialReference': {'wkid': 4326, 'latestWkid': 4326}}"
27,29,"2611 Redstone Dr Mission, TX 78572 Mission, TX 78572 Mission, TX 78572 Mission, TX 78572",349000,3,5,3508,Mission,78572,TX,26.2035353801067,-98.2816560501196,"{'x': -98.28153715099995, 'y': 26.20349144100004, 'spatialReference': {'wkid': 4326, 'latestWkid': 4326}}"
28,30,"3000 San Patricio St Mission, TX 78572 Mission, TX 78572 Mission, TX 78572 Mission, TX 78572",225000,5,4,2717,Mission,78572,TX,26.1606976608434,-98.3009229936886,"{'x': -98.30088496099995, 'y': 26.16089981700003, 'spatialReference': {'wkid': 4326, 'latestWkid': 4326}}"
29,31,"1608 Sebastian St Mission, TX 78572 Mission, TX 78572 Mission, TX 78572 Mission, TX 78572",263000,4,4,2173,Mission,78572,TX,26.1960146557669,-98.3036007888691,"{'x': -98.30357201599998, 'y': 26.19615474400007, 'spatialReference': {'wkid': 4326, 'latestWkid': 4326}}"
30,32,"1005 Berry St Mission, TX 78572 Mission, TX 78572 Mission, TX 78572 Mission, TX 78572",39900,3,2,1622,Mission,78572,TX,26.2173824697884,-98.3352775886443,"{'x': -98.33519944599999, 'y': 26.217846660000077, 'spatialReference': {'wkid': 4326, 'latestWkid': 4326}}"
31,33,"2600 Sonora Ave Mission, TX 78572 Mission, TX 78572 Mission, TX 78572 Mission, TX 78572",270000,3,4,2432,Mission,78572,TX,26.2012312936332,-98.2831031687818,"{'x': -98.28200819799997, 'y': 26.20178886900004, 'spatialReference': {'wkid': 4326, 'latestWkid': 4326}}"
32,34,"1205 Travis St Mission, TX 78572 Mission, TX 78572 Mission, TX 78572 Mission, TX 78572",1488710,7,9,10001,Mission,78572,TX,26.2280628113049,-98.3767135906025,"{'x': -98.30721962999996, 'y': 26.194587781000052, 'spatialReference': {'wkid': 4326, 'latestWkid': 4326}}"
33,35,"2107 Mauve Dr Mission, TX 78572 Mission, TX 78572 Mission, TX 78572 Mission, TX 78572",133000,3,2,1389,Mission,78572,TX,26.1891021331404,-98.3542211748681,"{'x': -98.35351555899996, 'y': 26.189032351000037, 'spatialReference': {'wkid': 4326, 'latestWkid': 4326}}"
34,36,"1807 Sebastian St Mission, TX 78572 Mission, TX 78572 Mission, TX 78572 Mission, TX 78572",215000,3,3,2376,Mission,78572,TX,26.1954352787265,-98.2993601704151,"{'x': -98.29938579099996, 'y': 26.195287242000063, 'spatialReference': {'wkid': 4326, 'latestWkid': 4326}}"
35,37,"1811 Fairway Cir Mission, TX 78572 Mission, TX 78572 Mission, TX 78572 Mission, TX 78572",155000,3,2,1829,Mission,78572,TX,26.223140812883,-98.3151659739588,"{'x': -98.31541138699998, 'y': 26.223146969000027, 'spatialReference': {'wkid': 4326, 'latestWkid': 4326}}"
36,38,"1502 Terrace Dr Mission, TX 78572 Mission, TX 78572 Mission, TX 78572 Mission, TX 78572",210000,4,3,2605,Mission,78572,TX,26.221376,-98.301683,"{'x': -98.30166270599995, 'y': 26.22156970700007, 'spatialReference': {'wkid': 4326, 'latestWkid': 4326}}"
37,39,"2605 Tack Dr # 122 Mission, TX 78572 Mission, TX 78572 Mission, TX 78572 Mission, TX 78572",60000,2,2,1268,Mission,78572,TX,26.2346713106067,-98.3262666647955,"{'x': -98.32625164299998, 'y': 26.234273022000025, 'spatialReference': {'wkid': 4326, 'latestWkid': 4326}}"
38,40,"302 N Slabaugh Ave Mission, TX 78572 Mission, TX 78572 Mission, TX 78572 Mission, TX 78572",59900,3,3,2169,Mission,78572,TX,26.2092135073254,-98.3314556382714,"{'x': -98.33147937899997, 'y': 26.209294785000054, 'spatialReference': {'wkid': 4326, 'latestWkid': 4326}}"
39,41,"1703 Palazzo Mission, TX 78572 Mission, TX 78572 Mission, TX 78572 Mission, TX 78572",375000,4,4,3278,Mission,78572,TX,26.1894040032543,-98.3030106191971,"{'x': -98.30304029399997, 'y': 26.189106442000025, 'spatialReference': {'wkid': 4326, 'latestWkid': 4326}}"
40,42,"2101 Scout Ln Mission, TX 78572 Mission, TX 78572 Mission, TX 78572 Mission, TX 78572",315000,4,3,2603,Mission,78572,TX,26.2150169477749,-98.2887667023823,"{'x': -98.28873925099998, 'y': 26.21498452900005, 'spatialReference': {'wkid': 4326, 'latestWkid': 4326}}"
41,43,"1406 Terrace Dr Mission, TX 78572 Mission, TX 78572 Mission, TX 78572 Mission, TX 78572",235000,4,3,2387,Mission,78572,TX,26.2215149362931,-98.3028625313087,"{'x': -98.30281381599997, 'y': 26.22173170700006, 'spatialReference': {'wkid': 4326, 'latestWkid': 4326}}"
42,44,"3401 Grand Canal Dr Mission, TX 78572 Mission, TX 78572 Mission, TX 78572 Mission, TX 78572",319000,4,4,3609,Mission,78572,TX,26.1701543828866,-98.304483272718,"{'x': -98.30449897099999, 'y': 26.169618489000072, 'spatialReference': {'wkid': 4326, 'latestWkid': 4326}}"
43,45,"608 S Castillos Y Diamantes St Mission, TX 78572 Mission, TX 78572 Mission, TX 78572 Mission, TX 78572",150450,3,2,1701,Mission,78572,TX,26.2280628113049,-98.3767135906025,"{'x': -98.35626599999995, 'y': 26.212130998000077, 'spatialReference': {'wkid': 4326, 'latestWkid': 4326}}"
44,46,"2101 Village Dr Mission, TX 78572 Mission, TX 78572 Mission, TX 78572 Mission, TX 78572",185000,4,3,1851,Mission,78572,TX,26.2184740622695,-98.2903965163199,"{'x': -98.29043651699999, 'y': 26.218234235000068, 'spatialReference': {'wkid': 4326, 'latestWkid': 4326}}"
45,47,"510 S Sol Dorado St Mission, TX 78572 Mission, TX 78572 Mission, TX 78572 Mission, TX 78572",132500,3,2,1228,Mission,78572,TX,26.2070906526723,-98.3626416767205,"{'x': -98.36238859199995, 'y': 26.207057190000057, 'spatialReference': {'wkid': 4326, 'latestWkid': 4326}}"
46,48,"1102 Rio Balsas Mission, TX 78572 Mission, TX 78572 Mission, TX 78572 Mission, TX 78572",235000,4,4,3189,Mission,78572,TX,26.1921041711164,-98.2968654691365,"{'x': -98.29668154099994, 'y': 26.19207244100005, 'spatialReference': {'wkid': 4326, 'latestWkid': 4326}}"
47,49,"2104 Loker St Mission, TX 78572 Mission, TX 78572 Mission, TX 78572 Mission, TX 78572",59000,2,2,1200,Mission,78572,TX,26.2077712646145,-98.2918022577969,"{'x': -98.29136228999994, 'y': 26.20776872500005, 'spatialReference': {'wkid': 4326, 'latestWkid': 4326}}"
48,50,"2703 Santa Olivia St Mission, TX 78572 Mission, TX 78572 Mission, TX 78572 Mission, TX 78572",309000,5,4,3574,Mission,78572,TX,26.1753093385401,-98.2988793662354,"{'x': -98.29911442999997, 'y': 26.175390036000067, 'spatialReference': {'wkid': 4326, 'latestWkid': 4326}}"
49,51,"4110 Santa Veronica St Mission, TX 78572 Mission, TX 78572 Mission, TX 78572 Mission, TX 78572",279900,4,4,3100,Mission,78572,TX,26.2280628113049,-98.3767135906025,"{'x': -98.30294139099999, 'y': 26.16213788600004, 'spatialReference': {'wkid': 4326, 'latestWkid': 4326}}"
50,52,"1804 Alex Dr Mission, TX 78572 Mission, TX 78572 Mission, TX 78572 Mission, TX 78572",219900,3,4,2493,Mission,78572,TX,26.1921752660838,-98.3000278863447,"{'x': -98.30033472499997, 'y': 26.19217222800006, 'spatialReference': {'wkid': 4326, 'latestWkid': 4326}}"
51,53,"3206 Santa Laura Mission, TX 78572 Mission, TX 78572 Mission, TX 78572 Mission, TX 78572",159000,3,2,1966,Mission,78572,TX,26.1686089215998,-98.2881325705988,"{'x': -98.28792161699994, 'y': 26.168573190000075, 'spatialReference': {'wkid': 4326, 'latestWkid': 4326}}"
52,54,"109 San Jacinto St Mission, TX 78572 Mission, TX 78572 Mission, TX 78572 Mission, TX 78572",190000,4,5,2351,Mission,78572,TX,26.1821657255581,-98.2939099396608,"{'x': -98.29373101799996, 'y': 26.182183631000044, 'spatialReference': {'wkid': 4326, 'latestWkid': 4326}}"
53,55,"1017 Rio Grande Dr Mission, TX 78572 Mission, TX 78572 Mission, TX 78572 Mission, TX 78572",199000,4,3,3146,Mission,78572,TX,26.1831665996536,-98.2926798293782,"{'x': -98.29186086799996, 'y': 26.183179605000078, 'spatialReference': {'wkid': 4326, 'latestWkid': 4326}}"
54,56,"2100 Granite Ave Mission, TX 78572 Mission, TX 78572 Mission, TX 78572 Mission, TX 78572",148000,4,2,1529,Mission,78572,TX,26.2198204,-98.2847372,"{'x': -98.28496756199996, 'y': 26.21983507400006, 'spatialReference': {'wkid': 4326, 'latestWkid': 4326}}"
55,57,"2217 Red River Dr Mission, TX 78572 Mission, TX 78572 Mission, TX 78572 Mission, TX 78572",629000,7,9,6298,Mission,78572,TX,26.1847229315217,-98.2966893449495,"{'x': -98.29665445799998, 'y': 26.184919758000035, 'spatialReference': {'wkid': 4326, 'latestWkid': 4326}}"
56,58,"910 Country Club Dr Mission, TX 78572 Mission, TX 78572 Mission, TX 78572 Mission, TX 78572",70000,3,1,1495,Mission,78572,TX,26.2202913692092,-98.3145275565798,"{'x': -98.31379258999999, 'y': 26.220264729000064, 'spatialReference': {'wkid': 4326, 'latestWkid': 4326}}"
57,59,"2905 San Rodrigo Mission, TX 78572 Mission, TX 78572 Mission, TX 78572 Mission, TX 78572",263000,5,4,3343,Mission,78572,TX,26.1706348001789,-98.2999849601286,"{'x': -98.30000654999998, 'y': 26.17040647500005, 'spatialReference': {'wkid': 4326, 'latestWkid': 4326}}"
58,60,"1015 Burney St Mission, TX 78572 Mission, TX 78572 Mission, TX 78572 Mission, TX 78572",224000,4,4,2695,Mission,78572,TX,26.2187783409578,-98.33842319684,"{'x': -98.33844540299998, 'y': 26.218580300000042, 'spatialReference': {'wkid': 4326, 'latestWkid': 4326}}"
59,61,"1413 Dora Jeanne Dr Mission, TX 78572 Mission, TX 78572 Mission, TX 78572 Mission, TX 78572",169000,3,3,1826,Mission,78572,TX,26.2172654010066,-98.3018747475283,"{'x': -98.30164008399998, 'y': 26.217206099000066, 'spatialReference': {'wkid': 4326, 'latestWkid': 4326}}"
60,62,"1701 E 21st St Mission, TX 78572 Mission, TX 78572 Mission, TX 78572 Mission, TX 78572",155000,3,2,1885,Mission,78572,TX,26.2231858840739,-98.2988520864803,"{'x': -98.29874211299995, 'y': 26.223115713000027, 'spatialReference': {'wkid': 4326, 'latestWkid': 4326}}"
61,63,"2800 Cassandra St Mission, TX 78572 Mission, TX 78572 Mission, TX 78572 Mission, TX 78572",375000,4,6,3018,Mission,78572,TX,26.2280628113049,-98.3767135906025,"{'x': -98.28048342499994, 'y': 26.19894308100004, 'spatialReference': {'wkid': 4326, 'latestWkid': 4326}}"
62,64,"2221 Red River Dr Mission, TX 78572 Mission, TX 78572 Mission, TX 78572 Mission, TX 78572",589000,6,6,5717,Mission,78572,TX,26.1846379362312,-98.2973097180518,"{'x': -98.29740025899997, 'y': 26.184830429000044, 'spatialReference': {'wkid': 4326, 'latestWkid': 4326}}"
63,65,"2300 Solera Mission, TX 78572 Mission, TX 78572 Mission, TX 78572 Mission, TX 78572",2500000,8,11,11656,Mission,78572,TX,26.1787857995156,-98.2953305591807,"{'x': -98.29467268199994, 'y': 26.178177641000048, 'spatialReference': {'wkid': 4326, 'latestWkid': 4326}}"
64,66,"1606 Toni Ln Mission, TX 78572 Mission, TX 78572 Mission, TX 78572 Mission, TX 78572",123000,3,2,1314,Mission,78572,TX,26.2243716134598,-98.2992165582688,"{'x': -98.29926157099999, 'y': 26.22450271100007, 'spatialReference': {'wkid': 4326, 'latestWkid': 4326}}"
65,67,"210 S Stewart Rd Mission, TX 78572 Mission, TX 78572 Mission, TX 78572 Mission, TX 78572",179000,4,3,2629,Mission,78572,TX,26.1997785607156,-98.3040991132297,"{'x': -98.30360377999995, 'y': 26.20253208200006, 'spatialReference': {'wkid': 4326, 'latestWkid': 4326}}"
66,68,"2118 Turtle Ln Mission, TX 78572 Mission, TX 78572 Mission, TX 78572 Mission, TX 78572",139900,3,2,1666,Mission,78572,TX,26.2218088446828,-98.2906346792846,"{'x': -98.28879359699994, 'y': 26.22163666700004, 'spatialReference': {'wkid': 4326, 'latestWkid': 4326}}"
67,69,"201 S Grovewood Ave Mission, TX 78572 Mission, TX 78572 Mission, TX 78572 Mission, TX 78572",399900,4,4,3446,Mission,78572,TX,26.2280628113049,-98.3767135906025,"{'x': -98.28111836499994, 'y': 26.19939520400004, 'spatialReference': {'wkid': 4326, 'latestWkid': 4326}}"
68,70,"1907 Lake Point Dr Mission, TX 78572 Mission, TX 78572 Mission, TX 78572 Mission, TX 78572",126000,3,2,1200,Mission,78572,TX,26.1930484182559,-98.3499640581573,"{'x': -98.35001302699999, 'y': 26.193099287000052, 'spatialReference': {'wkid': 4326, 'latestWkid': 4326}}"
69,71,"1608 Audrey Dr Mission, TX 78572 Mission, TX 78572 Mission, TX 78572 Mission, TX 78572",345000,3,3,2823,Mission,78572,TX,26.1951569221104,-98.3037466255707,"{'x': -98.30372582299998, 'y': 26.195300718000055, 'spatialReference': {'wkid': 4326, 'latestWkid': 4326}}"
70,72,"4104 Santa Olivia St Mission, TX 78572 Mission, TX 78572 Mission, TX 78572 Mission, TX 78572",200000,4,3,2642,Mission,78572,TX,26.1622895131889,-98.3018620842513,"{'x': -98.30161113499997, 'y': 26.16224479600004, 'spatialReference': {'wkid': 4326, 'latestWkid': 4326}}"
71,73,"214 Driftwood Ave Mission, TX 78572 Mission, TX 78572 Mission, TX 78572 Mission, TX 78572",199999,3,4,1795,Mission,78572,TX,26.2033314151652,-98.2816487651775,"{'x': -98.28183189399994, 'y': 26.202570727000023, 'spatialReference': {'wkid': 4326, 'latestWkid': 4326}}"
72,74,"1110 Fairway Dr Mission, TX 78572 Mission, TX 78572 Mission, TX 78572 Mission, TX 78572",279900,4,3,2693,Mission,78572,TX,26.220955968027,-98.3088821881721,"{'x': -98.30885384299995, 'y': 26.22118262300006, 'spatialReference': {'wkid': 4326, 'latestWkid': 4326}}"
73,75,"900 Paradise Cir Palmview, TX 78572 Palmview, TX 78572 Palmview, TX 78572 Palmview, TX 78572",220000,5,3,2870,Palmview,78572,TX,26.233787475989,-98.3601383936102,"{'x': -98.36018765899996, 'y': 26.233503253000038, 'spatialReference': {'wkid': 4326, 'latestWkid': 4326}}"
74,76,"1809 Audrey Dr Mission, TX 78572 Mission, TX 78572 Mission, TX 78572 Mission, TX 78572",209000,3,2,2322,Mission,78572,TX,26.1946084208916,-98.2992077046217,"{'x': -98.29922395799997, 'y': 26.19445924200005, 'spatialReference': {'wkid': 4326, 'latestWkid': 4326}}"
75,77,"2811 Santa Ana Mission, TX 78572 Mission, TX 78572 Mission, TX 78572 Mission, TX 78572",599000,7,7,4858,Mission,78572,TX,26.1734562647193,-98.2883990687097,"{'x': -98.28851346699997, 'y': 26.17336687100004, 'spatialReference': {'wkid': 4326, 'latestWkid': 4326}}"
76,78,"2802 Santa Lydia St Mission, TX 78572 Mission, TX 78572 Mission, TX 78572 Mission, TX 78572",275000,4,4,3858,Mission,78572,TX,26.1738790102377,-98.2976890807476,"{'x': -98.30008373799996, 'y': 26.159606559000053, 'spatialReference': {'wkid': 4326, 'latestWkid': 4326}}"
77,79,"1503 Marla Dr Palmview, TX 78572 Palmview, TX 78572 Palmview, TX 78572 Palmview, TX 78572",71509,3,2,1274,Palmview,78572,TX,26.2335526965616,-98.3869492602312,"{'x': -98.38691528999999, 'y': 26.23382470000007, 'spatialReference': {'wkid': 4326, 'latestWkid': 4326}}"
78,80,"1504 Sheri Lee Dr Mission, TX 78572 Mission, TX 78572 Mission, TX 78572 Mission, TX 78572",223000,4,3,2560,Mission,78572,TX,26.220449908803,-98.3016265600107,"{'x': -98.30158170599998, 'y': 26.220660707000036, 'spatialReference': {'wkid': 4326, 'latestWkid': 4326}}"
79,81,"3503 San Benito St Mission, TX 78572 Mission, TX 78572 Mission, TX 78572 Mission, TX 78572",174000,3,2,1929,Mission,78572,TX,26.1685522220015,-98.293889679012,"{'x': -98.29391429399999, 'y': 26.16837027500003, 'spatialReference': {'wkid': 4326, 'latestWkid': 4326}}"
80,82,"3302 Santa Erica St Mission, TX 78572 Mission, TX 78572 Mission, TX 78572 Mission, TX 78572",187228,4,3,3266,Mission,78572,TX,26.1686733903961,-98.292426671935,"{'x': -98.30318994599997, 'y': 26.172538747000033, 'spatialReference': {'wkid': 4326, 'latestWkid': 4326}}"
81,83,"4103 Santa Fe St Mission, TX 78572 Mission, TX 78572 Mission, TX 78572 Mission, TX 78572",180000,3,3,2229,Mission,78572,TX,26.1618556389691,-98.2981648257931,"{'x': -98.29666000799995, 'y': 26.170788714000025, 'spatialReference': {'wkid': 4326, 'latestWkid': 4326}}"
82,84,"2008 Turtle Ln Mission, TX 78572 Mission, TX 78572 Mission, TX 78572 Mission, TX 78572",176500,3,3,1861,Mission,78572,TX,26.2219341264753,-98.2915391102881,"{'x': -98.29100398799994, 'y': 26.22191469300003, 'spatialReference': {'wkid': 4326, 'latestWkid': 4326}}"
83,85,"2911 San Roman St Mission, TX 78572 Mission, TX 78572 Mission, TX 78572 Mission, TX 78572",249000,4,3,2215,Mission,78572,TX,26.1690950360574,-98.2996640773212,"{'x': -98.29967810199997, 'y': 26.16890038400004, 'spatialReference': {'wkid': 4326, 'latestWkid': 4326}}"
84,86,"3102 Santa Lydia St Mission, TX 78572 Mission, TX 78572 Mission, TX 78572 Mission, TX 78572",289000,4,4,3662,Mission,78572,TX,26.1716963538556,-98.2976708105472,"{'x': -98.30009350899996, 'y': 26.159557703000075, 'spatialReference': {'wkid': 4326, 'latestWkid': 4326}}"
85,87,"2420 E Sycamore Ave Mission, TX 78572 Mission, TX 78572 Mission, TX 78572 Mission, TX 78572",425000,5,4,3315,Mission,78572,TX,26.2267171313689,-98.2825046479808,"{'x': -98.28254788999999, 'y': 26.226694257000077, 'spatialReference': {'wkid': 4326, 'latestWkid': 4326}}"
86,88,"4002 Santa Olivia St Mission, TX 78572 Mission, TX 78572 Mission, TX 78572 Mission, TX 78572",237500,4,3,2952,Mission,78572,TX,26.1632258479827,-98.3016977700806,"{'x': -98.30145002599994, 'y': 26.16318129900003, 'spatialReference': {'wkid': 4326, 'latestWkid': 4326}}"
87,89,"7614 Wagon Trail Dr Mission, TX 78572 Mission, TX 78572 Mission, TX 78572 Mission, TX 78572",330000,4,4,3657,Mission,78572,TX,26.2341819677507,-98.4124415454716,"{'x': -98.41280773499994, 'y': 26.23417924900008, 'spatialReference': {'wkid': 4326, 'latestWkid': 4326}}"
88,90,"3303 San Rafael St Mission, TX 78572 Mission, TX 78572 Mission, TX 78572 Mission, TX 78572",228250,4,3,2970,Mission,78572,TX,26.1588096465072,-98.2977683360908,"{'x': -98.29781537499997, 'y': 26.158640216000038, 'spatialReference': {'wkid': 4326, 'latestWkid': 4326}}"
89,91,"1903 Selena St Mission, TX 78572 Mission, TX 78572 Mission, TX 78572 Mission, TX 78572",149000,3,2,1331,Mission,78572,TX,26.2027549408477,-98.2958830261236,"{'x': -98.29712868599995, 'y': 26.202948753000044, 'spatialReference': {'wkid': 4326, 'latestWkid': 4326}}"
90,92,"4101 Palmetto Drive Mission, TX 78572 Mission, TX 78572 Mission, TX 78572 Mission, TX 78572",855000,4,6,5223,Mission,78572,TX,26.2280628113049,-98.3767135906025,"{'x': -98.36868406199994, 'y': 26.25349275700006, 'spatialReference': {'wkid': 4326, 'latestWkid': 4326}}"
91,93,"1101 Fincher St Mission, TX 78572 Mission, TX 78572 Mission, TX 78572 Mission, TX 78572",85000,3,2,1364,Mission,78572,TX,26.2240532060376,-98.3383047512249,"{'x': -98.33687817699996, 'y': 26.223788314000046, 'spatialReference': {'wkid': 4326, 'latestWkid': 4326}}"
92,94,"3626 Beatty St Mission, TX 78572 Mission, TX 78572 Mission, TX 78572 Mission, TX 78572",45000,3,2,1560,Mission,78572,TX,26.2280628113049,-98.3767135906025,"{'x': -98.33240246699995, 'y': 26.171000142000025, 'spatialReference': {'wkid': 4326, 'latestWkid': 4326}}"
93,95,"3008 Santa Lorena Mission, TX 78572 Mission, TX 78572 Mission, TX 78572 Mission, TX 78572",259900,3,4,2650,Mission,78572,TX,26.1722499447498,-98.2902883787977,"{'x': -98.29055798899998, 'y': 26.171620114000063, 'spatialReference': {'wkid': 4326, 'latestWkid': 4326}}"
94,96,"1403 Barcelona St Mission, TX 78572 Mission, TX 78572 Mission, TX 78572 Mission, TX 78572",309000,4,4,3004,Mission,78572,TX,26.2203425414878,-98.3035881973506,"{'x': -98.30362626799996, 'y': 26.220096260000048, 'spatialReference': {'wkid': 4326, 'latestWkid': 4326}}"
95,97,"2600 Solera Mission, TX 78572 Mission, TX 78572 Mission, TX 78572 Mission, TX 78572",995500,6,7,6218,Mission,78572,TX,26.1764837014511,-98.2952942860675,"{'x': -98.29451114799997, 'y': 26.176376807000054, 'spatialReference': {'wkid': 4326, 'latestWkid': 4326}}"
96,98,"2702 San Diego Mission, TX 78572 Mission, TX 78572 Mission, TX 78572 Mission, TX 78572",385000,5,5,5023,Mission,78572,TX,26.17493040467,-98.3012426540127,"{'x': -98.30118461699999, 'y': 26.175246623000078, 'spatialReference': {'wkid': 4326, 'latestWkid': 4326}}"
97,99,"2800 Brock St Mission, TX 78572 Mission, TX 78572 Mission, TX 78572 Mission, TX 78572",259900,3,3,2376,Mission,78572,TX,26.2280628113049,-98.3767135906025,"{'x': -98.27646848499995, 'y': 26.222059759000047, 'spatialReference': {'wkid': 4326, 'latestWkid': 4326}}"
98,100,"1808 Lauren Ln Mission, TX 78572 Mission, TX 78572 Mission, TX 78572 Mission, TX 78572",179000,4,2,2196,Mission,78572,TX,26.2196144874338,-98.2948188286137,"{'x': -98.29425515099996, 'y': 26.219595784000035, 'spatialReference': {'wkid': 4326, 'latestWkid': 4326}}"
99,101,"3600 Florencia Ct Mission, TX 78572 Mission, TX 78572 Mission, TX 78572 Mission, TX 78572",235000,4,4,2645,Mission,78572,TX,26.1709836967119,-98.2916658068808,"{'x': -98.29208301299997, 'y': 26.171055693000028, 'spatialReference': {'wkid': 4326, 'latestWkid': 4326}}"
100,102,"2509 Redstone Dr Mission, TX 78572 Mission, TX 78572 Mission, TX 78572 Mission, TX 78572",339000,3,5,3205,Mission,78572,TX,26.2036114626812,-98.2823709521636,"{'x': -98.28215490299999, 'y': 26.203537340000025, 'spatialReference': {'wkid': 4326, 'latestWkid': 4326}}"
101,103,"1601 E Gastel Cir Mission, TX 78572 Mission, TX 78572 Mission, TX 78572 Mission, TX 78572",139500,2,3,1616,Mission,78572,TX,26.2218487797482,-98.3049963288145,"{'x': -98.30490038399995, 'y': 26.220990880000045, 'spatialReference': {'wkid': 4326, 'latestWkid': 4326}}"
102,104,"3905 El Jardin Mission, TX 78572 Mission, TX 78572 Mission, TX 78572 Mission, TX 78572",372900,5,4,3494,Mission,78572,TX,26.1710448927481,-98.2887130552078,"{'x': -98.28871199999998, 'y': 26.17128954700007, 'spatialReference': {'wkid': 4326, 'latestWkid': 4326}}"
103,105,"1308 San Felipe Dr Mission, TX 78572 Mission, TX 78572 Mission, TX 78572 Mission, TX 78572",223900,4,3,2313,Mission,78572,TX,26.2171655487913,-98.3053948766776,"{'x': -98.30570785699996, 'y': 26.21721414600006, 'spatialReference': {'wkid': 4326, 'latestWkid': 4326}}"
104,106,"1008 Comanche St Mission, TX 78572 Mission, TX 78572 Mission, TX 78572 Mission, TX 78572",145000,5,3,2869,Mission,78572,TX,26.206450755425,-98.4069356426267,"{'x': -98.40665108799999, 'y': 26.207748157000026, 'spatialReference': {'wkid': 4326, 'latestWkid': 4326}}"
105,107,"2316 Antigua Dr Mission, TX 78572 Mission, TX 78572 Mission, TX 78572 Mission, TX 78572",3000000,5,8,12314,Mission,78572,TX,26.2280628113049,-98.3767135906025,"{'x': -98.29828857799998, 'y': 26.179585376000034, 'spatialReference': {'wkid': 4326, 'latestWkid': 4326}}"
106,108,"2509 Sequoia Dr Mission, TX 78572 Mission, TX 78572 Mission, TX 78572 Mission, TX 78572",260000,3,2,3019,Mission,78572,TX,26.2168565927099,-98.2788691017656,"{'x': -98.27890776799995, 'y': 26.216604260000054, 'spatialReference': {'wkid': 4326, 'latestWkid': 4326}}"
107,109,"516 Virgo St Mission, TX 78572 Mission, TX 78572 Mission, TX 78572 Mission, TX 78572",145900,2,2,2025,Mission,78572,TX,26.2076567,-98.3006287,"{'x': -98.30076136099996, 'y': 26.20767325500003, 'spatialReference': {'wkid': 4326, 'latestWkid': 4326}}"
108,110,"2705 Brock St Mission, TX 78572 Mission, TX 78572 Mission, TX 78572 Mission, TX 78572",365000,3,4,3145,Mission,78572,TX,26.2280628113049,-98.3767135906025,"{'x': -98.27718762599994, 'y': 26.222244275000037, 'spatialReference': {'wkid': 4326, 'latestWkid': 4326}}"
109,111,"509 Venus St Mission, TX 78572 Mission, TX 78572 Mission, TX 78572 Mission, TX 78572",119900,3,2,1326,Mission,78572,TX,26.2074857625085,-98.3035641657897,"{'x': -98.30358790099996, 'y': 26.207430978000048, 'spatialReference': {'wkid': 4326, 'latestWkid': 4326}}"
110,112,"611 S Mina De Oro St Mission, TX 78572 Mission, TX 78572 Mission, TX 78572 Mission, TX 78572",134900,3,2,1273,Mission,78572,TX,26.2063433228805,-98.360773442965,"{'x': -98.36095796699999, 'y': 26.205757617000074, 'spatialReference': {'wkid': 4326, 'latestWkid': 4326}}"
111,113,"2312 Red River Dr Mission, TX 78572 Mission, TX 78572 Mission, TX 78572 Mission, TX 78572",279900,4,6,3676,Mission,78572,TX,26.1851570256219,-98.2971760751656,"{'x': -98.29714420299996, 'y': 26.18495532600008, 'spatialReference': {'wkid': 4326, 'latestWkid': 4326}}"
112,114,"2406 San Alejandro Mission, TX 78572 Mission, TX 78572 Mission, TX 78572 Mission, TX 78572",395000,4,5,3919,Mission,78572,TX,26.1753543505143,-98.3039124182418,"{'x': -98.30454663999996, 'y': 26.176164193000034, 'spatialReference': {'wkid': 4326, 'latestWkid': 4326}}"
113,115,"413 Sagittarius St Mission, TX 78572 Mission, TX 78572 Mission, TX 78572 Mission, TX 78572",119900,3,2,1995,Mission,78572,TX,26.2058690776464,-98.3066520743468,"{'x': -98.30657140099999, 'y': 26.20659372700004, 'spatialReference': {'wkid': 4326, 'latestWkid': 4326}}"
114,116,"603 S Rancho Del Rey St Mission, TX 78572 Mission, TX 78572 Mission, TX 78572 Mission, TX 78572",107900,3,2,1149,Mission,78572,TX,26.2280628113049,-98.3767135906025,"{'x': -98.36160834999998, 'y': 26.20651289400007, 'spatialReference': {'wkid': 4326, 'latestWkid': 4326}}"
115,117,"1503 Viejo Ln Mission, TX 78572 Mission, TX 78572 Mission, TX 78572 Mission, TX 78572",199000,3,3,1974,Mission,78572,TX,26.1887059470985,-98.3112532529716,"{'x': -98.31143784999995, 'y': 26.188737978000063, 'spatialReference': {'wkid': 4326, 'latestWkid': 4326}}"
116,118,"3505 Santa Sofia Ct Mission, TX 78572 Mission, TX 78572 Mission, TX 78572 Mission, TX 78572",210000,4,3,3097,Mission,78572,TX,26.1669878479585,-98.2936439857927,"{'x': -98.29386007999994, 'y': 26.16701357100004, 'spatialReference': {'wkid': 4326, 'latestWkid': 4326}}"
117,119,"2806 Santa Susana St Mission, TX 78572 Mission, TX 78572 Mission, TX 78572 Mission, TX 78572",237000,5,5,3306,Mission,78572,TX,26.1744707795268,-98.2986717298752,"{'x': -98.29868550699996, 'y': 26.172319827000024, 'spatialReference': {'wkid': 4326, 'latestWkid': 4326}}"
118,120,"2404 San Alejandro Mission, TX 78572 Mission, TX 78572 Mission, TX 78572 Mission, TX 78572",352000,5,6,5187,Mission,78572,TX,26.1763400751101,-98.3049110948696,"{'x': -98.30471658099998, 'y': 26.17630016800007, 'spatialReference': {'wkid': 4326, 'latestWkid': 4326}}"
119,121,"1401 Viejo Ln Mission, TX 78572 Mission, TX 78572 Mission, TX 78572 Mission, TX 78572",199000,3,2,2582,Mission,78572,TX,26.1900445740786,-98.3110267134418,"{'x': -98.31122184999998, 'y': 26.19007095300003, 'spatialReference': {'wkid': 4326, 'latestWkid': 4326}}"
120,122,"1104 Glenwood Ave Mission, TX 78572 Mission, TX 78572 Mission, TX 78572 Mission, TX 78572",569000,4,6,4680,Mission,78572,TX,26.2280628113049,-98.3767135906025,"{'x': -98.28806883199996, 'y': 26.212301036000042, 'spatialReference': {'wkid': 4326, 'latestWkid': 4326}}"
121,123,"7730 Villa Rama South St Mission, TX 78572 Mission, TX 78572 Mission, TX 78572 Mission, TX 78572",122000,4,3,2652,Mission,78572,TX,26.2280628113049,-98.3767135906025,"{'x': -98.41559437699999, 'y': 26.23225032600004, 'spatialReference': {'wkid': 4326, 'latestWkid': 4326}}"
122,124,"2808 Santa Susana St Mission, TX 78572 Mission, TX 78572 Mission, TX 78572 Mission, TX 78572",255000,4,3,3512,Mission,78572,TX,26.1742166906398,-98.2987187050004,"{'x': -98.29868580899995, 'y': 26.172317227000065, 'spatialReference': {'wkid': 4326, 'latestWkid': 4326}}"
123,125,"1517 E 2nd St Mission, TX 78572 Mission, TX 78572 Mission, TX 78572 Mission, TX 78572",119900,3,2,1439,Mission,78572,TX,26.2043448823682,-98.3044555327742,"{'x': -98.30402490299997, 'y': 26.204206326000076, 'spatialReference': {'wkid': 4326, 'latestWkid': 4326}}"
124,126,"1119 Ursula St Mission, TX 78572 Mission, TX 78572 Mission, TX 78572 Mission, TX 78572",299000,4,4,3236,Mission,78572,TX,26.2218105374249,-98.3086318875063,"{'x': -98.30878679399996, 'y': 26.221779282000057, 'spatialReference': {'wkid': 4326, 'latestWkid': 4326}}"
125,127,"1103 Travis St Mission, TX 78572 Mission, TX 78572 Mission, TX 78572 Mission, TX 78572",619000,5,5,5158,Mission,78572,TX,26.2280628113049,-98.3767135906025,"{'x': -98.30718299699998, 'y': 26.19480758000003, 'spatialReference': {'wkid': 4326, 'latestWkid': 4326}}"
126,128,"2809 Santa Monica Mission, TX 78572 Mission, TX 78572 Mission, TX 78572 Mission, TX 78572",276500,5,4,3226,Mission,78572,TX,26.1744863,-98.3005687,"{'x': -98.30077788999995, 'y': 26.174555036000072, 'spatialReference': {'wkid': 4326, 'latestWkid': 4326}}"
127,129,"3607 Santa Maria St Mission, TX 78572 Mission, TX 78572 Mission, TX 78572 Mission, TX 78572",279000,4,4,3597,Mission,78572,TX,26.2280628113049,-98.3767135906025,"{'x': -98.30262774099998, 'y': 26.166741674000036, 'spatialReference': {'wkid': 4326, 'latestWkid': 4326}}"
128,130,"1402 Betty Dr Mission, TX 78572 Mission, TX 78572 Mission, TX 78572 Mission, TX 78572",225000,4,3,2362,Mission,78572,TX,26.2162163841972,-98.3034116948149,"{'x': -98.30367818999997, 'y': 26.216315707000035, 'spatialReference': {'wkid': 4326, 'latestWkid': 4326}}"
129,131,"3010 San Sebastian St Mission, TX 78572 Mission, TX 78572 Mission, TX 78572 Mission, TX 78572",195000,4,3,2070,Mission,78572,TX,26.1573480568863,-98.3001374865297,"{'x': -98.30057362299999, 'y': 26.15746067400005, 'spatialReference': {'wkid': 4326, 'latestWkid': 4326}}"
130,132,"1400 Mockingbird Ave Mission, TX 78572 Mission, TX 78572 Mission, TX 78572 Mission, TX 78572",334900,4,5,3923,Mission,78572,TX,26.2137183,-98.2808201,"{'x': -98.28053823799996, 'y': 26.213688628000057, 'spatialReference': {'wkid': 4326, 'latestWkid': 4326}}"
131,133,"3405 Santa Monica Mission, TX 78572 Mission, TX 78572 Mission, TX 78572 Mission, TX 78572",196500,3,2,2044,Mission,78572,TX,26.1689426528786,-98.3015640049654,"{'x': -98.30173057999997, 'y': 26.168968048000067, 'spatialReference': {'wkid': 4326, 'latestWkid': 4326}}"
132,134,"1616 Palazzo Mission, TX 78572 Mission, TX 78572 Mission, TX 78572 Mission, TX 78572",1395000,4,5,6106,Mission,78572,TX,26.1888713546244,-98.3037617271251,"{'x': -98.30372315099999, 'y': 26.189159733000054, 'spatialReference': {'wkid': 4326, 'latestWkid': 4326}}"
133,135,"4100 San Clemente Mission, TX 78572 Mission, TX 78572 Mission, TX 78572 Mission, TX 78572",379000,4,4,3450,Mission,78572,TX,26.1711989478394,-98.2870700294565,"{'x': -98.28683410499997, 'y': 26.17112512400007, 'spatialReference': {'wkid': 4326, 'latestWkid': 4326}}"
134,136,"4205 San Roman St Mission, TX 78572 Mission, TX 78572 Mission, TX 78572 Mission, TX 78572",275000,5,5,3264,Mission,78572,TX,26.1665069870635,-98.2865302080678,"{'x': -98.28655565199995, 'y': 26.166318275000037, 'spatialReference': {'wkid': 4326, 'latestWkid': 4326}}"
135,137,"1803 River Bend Dr Mission, TX 78572 Mission, TX 78572 Mission, TX 78572 Mission, TX 78572",174000,2,3,2144,Mission,78572,TX,26.1924826972586,-98.3500924029275,"{'x': -98.35002010899996, 'y': 26.191791000000023, 'spatialReference': {'wkid': 4326, 'latestWkid': 4326}}"
136,138,"3709 Santa Olivia St Mission, TX 78572 Mission, TX 78572 Mission, TX 78572 Mission, TX 78572",370000,5,4,4576,Mission,78572,TX,26.1665194663758,-98.3007542052396,"{'x': -98.30084756299999, 'y': 26.166147833000025, 'spatialReference': {'wkid': 4326, 'latestWkid': 4326}}"
137,139,"2501 San Efrain Mission, TX 78572 Mission, TX 78572 Mission, TX 78572 Mission, TX 78572",349000,5,4,4366,Mission,78572,TX,26.1742200360951,-98.3041692827422,"{'x': -98.30359362499996, 'y': 26.174415288000034, 'spatialReference': {'wkid': 4326, 'latestWkid': 4326}}"
138,140,"903 Colorado Ct Mission, TX 78572 Mission, TX 78572 Mission, TX 78572 Mission, TX 78572",169000,3,2,1885,Mission,78572,TX,26.1918476139572,-98.2902883108949,"{'x': -98.29037191399999, 'y': 26.191783352000073, 'spatialReference': {'wkid': 4326, 'latestWkid': 4326}}"
139,141,"514 Aquarius St Mission, TX 78572 Mission, TX 78572 Mission, TX 78572 Mission, TX 78572",118000,2,2,1468,Mission,78572,TX,26.2083115696292,-98.3057285783818,"{'x': -98.30565004099998, 'y': 26.208128441000042, 'spatialReference': {'wkid': 4326, 'latestWkid': 4326}}"
140,142,"1918 Sparrow Ln Mission, TX 78572 Mission, TX 78572 Mission, TX 78572 Mission, TX 78572",235000,4,3,2785,Mission,78572,TX,26.1952049740795,-98.3751847218949,"{'x': -98.37526008399999, 'y': 26.194447215000025, 'spatialReference': {'wkid': 4326, 'latestWkid': 4326}}"
141,143,"2902 Santa Sofia Ct Mission, TX 78572 Mission, TX 78572 Mission, TX 78572 Mission, TX 78572",650000,4,5,7262,Mission,78572,TX,26.2280628113049,-98.3767135906025,"{'x': -98.29389629699995, 'y': 26.16751129800008, 'spatialReference': {'wkid': 4326, 'latestWkid': 4326}}"
142,144,"3611 Grand Canal Dr Mission, TX 78572 Mission, TX 78572 Mission, TX 78572 Mission, TX 78572",330000,5,5,4431,Mission,78572,TX,26.1680979506907,-98.3046439674601,"{'x': -98.30457907999994, 'y': 26.16661923600003, 'spatialReference': {'wkid': 4326, 'latestWkid': 4326}}"
143,145,"1611 Sheri Lee Dr Mission, TX 78572 Mission, TX 78572 Mission, TX 78572 Mission, TX 78572",334900,4,3,3263,Mission,78572,TX,26.2204180002024,-98.2982180060926,"{'x': -98.29829375799994, 'y': 26.220176841000068, 'spatialReference': {'wkid': 4326, 'latestWkid': 4326}}"
144,146,"3303 San Andres St Mission, TX 78572 Mission, TX 78572 Mission, TX 78572 Mission, TX 78572",199000,4,4,3031,Mission,78572,TX,26.1576578,-98.2976515,"{'x': -98.29784676999998, 'y': 26.157903442000077, 'spatialReference': {'wkid': 4326, 'latestWkid': 4326}}"
145,147,"4005 Grand Canal Dr Mission, TX 78572 Mission, TX 78572 Mission, TX 78572 Mission, TX 78572",269000,4,3,2169,Mission,78572,TX,26.2280628113049,-98.3767135906025,"{'x': -98.30644765999995, 'y': 26.176236286000062, 'spatialReference': {'wkid': 4326, 'latestWkid': 4326}}"
146,148,"3421 W Expressway 83 Mission, TX 78572 Mission, TX 78572 Mission, TX 78572 Mission, TX 78572",299000,6,5,5841,Mission,78572,TX,26.2316418820753,-98.3655065971346,"{'x': -98.36534756499998, 'y': 26.232036614000037, 'spatialReference': {'wkid': 4326, 'latestWkid': 4326}}"
147,149,"2504 Starling Cir W Palmview, TX 78572 Palmview, TX 78572 Palmview, TX 78572 Palmview, TX 78572",77500,2,1,1181,Palmview,78572,TX,26.2280628113049,-98.3767135906025,"{'x': -98.37278486599996, 'y': 26.21140809700006, 'spatialReference': {'wkid': 4326, 'latestWkid': 4326}}"
148,150,"2601 Grand Canal Dr Mission, TX 78572 Mission, TX 78572 Mission, TX 78572 Mission, TX 78572",395000,5,5,3366,Mission,78572,TX,26.2280628113049,-98.3767135906025,"{'x': -98.30626058799999, 'y': 26.17801051200007, 'spatialReference': {'wkid': 4326, 'latestWkid': 4326}}"
149,151,"1414 N Mockingbird Ln Palmview, TX 78572 Palmview, TX 78572 Palmview, TX 78572 Palmview, TX 78572",168000,3,2,1885,Palmview,78572,TX,26.2247371889573,-98.3949301419465,"{'x': -98.39494849899995, 'y': 26.22511645000003, 'spatialReference': {'wkid': 4326, 'latestWkid': 4326}}"
150,152,"125 S Holland Ave Mission, TX 78572 Mission, TX 78572 Mission, TX 78572 Mission, TX 78572",65000,3,2,1032,Mission,78572,TX,26.2072182115371,-98.3352261979092,"{'x': -98.33548039699997, 'y': 26.20621686900006, 'spatialReference': {'wkid': 4326, 'latestWkid': 4326}}"
151,153,"1007 Burrus St Mission, TX 78572 Mission, TX 78572 Mission, TX 78572 Mission, TX 78572",120000,3,2,1534,Mission,78572,TX,26.2201069816173,-98.33673095825,"{'x': -98.33719586199999, 'y': 26.22010335400006, 'spatialReference': {'wkid': 4326, 'latestWkid': 4326}}"
152,154,"2807 Santa Laura Mission, TX 78572 Mission, TX 78572 Mission, TX 78572 Mission, TX 78572",560000,4,4,4165,Mission,78572,TX,26.1729999963639,-98.2867873529325,"{'x': -98.28678037699996, 'y': 26.173110050000048, 'spatialReference': {'wkid': 4326, 'latestWkid': 4326}}"
153,155,"919 Rio Grande Dr Mission, TX 78572 Mission, TX 78572 Mission, TX 78572 Mission, TX 78572",420000,4,4,3286,Mission,78572,TX,26.1825989466213,-98.2982606333837,"{'x': -98.29637453599997, 'y': 26.182409671000073, 'spatialReference': {'wkid': 4326, 'latestWkid': 4326}}"
154,156,"817 Cimarron Dr Mission, TX 78572 Mission, TX 78572 Mission, TX 78572 Mission, TX 78572",205000,3,3,2292,Mission,78572,TX,26.1931014107716,-98.2938166128762,"{'x': -98.29482965399995, 'y': 26.192675118000068, 'spatialReference': {'wkid': 4326, 'latestWkid': 4326}}"
155,157,"3709 San Clemente Mission, TX 78572 Mission, TX 78572 Mission, TX 78572 Mission, TX 78572",275000,3,3,2103,Mission,78572,TX,26.1701667849878,-98.2904850229786,"{'x': -98.29040462799998, 'y': 26.17019477900004, 'spatialReference': {'wkid': 4326, 'latestWkid': 4326}}"
156,158,"2608 Cassandra St Mission, TX 78572 Mission, TX 78572 Mission, TX 78572 Mission, TX 78572",450000,4,5,3680,Mission,78572,TX,26.2280628113049,-98.3767135906025,"{'x': -98.28210307799998, 'y': 26.19916577200007, 'spatialReference': {'wkid': 4326, 'latestWkid': 4326}}"
157,159,"2222 Hackberry Mission, TX 78572 Mission, TX 78572 Mission, TX 78572 Mission, TX 78572",255000,4,4,2623,Mission,78572,TX,26.2214730557041,-98.2810557179632,"{'x': -98.28098838299996, 'y': 26.222288029000026, 'spatialReference': {'wkid': 4326, 'latestWkid': 4326}}"
158,160,"2505 Sequoia Dr Mission, TX 78572 Mission, TX 78572 Mission, TX 78572 Mission, TX 78572",259900,3,3,2779,Mission,78572,TX,26.2169236849884,-98.2793575746474,"{'x': -98.27939826799997, 'y': 26.216676260000042, 'spatialReference': {'wkid': 4326, 'latestWkid': 4326}}"
159,161,"2905 Grand Canal Dr Mission, TX 78572 Mission, TX 78572 Mission, TX 78572 Mission, TX 78572",357000,5,5,3775,Mission,78572,TX,26.2280628113049,-98.3767135906025,"{'x': -98.30425215699995, 'y': 26.174341540000057, 'spatialReference': {'wkid': 4326, 'latestWkid': 4326}}"
160,162,"913 Lake View Dr Mission, TX 78572 Mission, TX 78572 Mission, TX 78572 Mission, TX 78572",139900,2,2,1782,Mission,78572,TX,26.2008166315491,-98.3502250308038,"{'x': -98.35005689999997, 'y': 26.200778155000023, 'spatialReference': {'wkid': 4326, 'latestWkid': 4326}}"
161,163,"7810 Villa Rama North St Mission, TX 78572 Mission, TX 78572 Mission, TX 78572 Mission, TX 78572",99000,3,1,1092,Mission,78572,TX,26.2280628113049,-98.3767135906025,"{'x': -98.41593523499995, 'y': 26.233108333000075, 'spatialReference': {'wkid': 4326, 'latestWkid': 4326}}"
162,164,"1501 S Stewart Rd Mission, TX 78572 Mission, TX 78572 Mission, TX 78572 Mission, TX 78572",369000,4,3,3322,Mission,78572,TX,26.1882872208725,-98.3056698611351,"{'x': -98.30590788999996, 'y': 26.188315869000064, 'spatialReference': {'wkid': 4326, 'latestWkid': 4326}}"
163,165,"1401 Garden Dr Mission, TX 78572 Mission, TX 78572 Mission, TX 78572 Mission, TX 78572",164800,3,4,1730,Mission,78572,TX,26.2008350848349,-98.3075655104575,"{'x': -98.30748440699995, 'y': 26.200624326000025, 'spatialReference': {'wkid': 4326, 'latestWkid': 4326}}"
164,166,"904 Rio Grande Dr Mission, TX 78572 Mission, TX 78572 Mission, TX 78572 Mission, TX 78572",330000,5,3,3762,Mission,78572,TX,26.1828680961745,-98.2988763181678,"{'x': -98.29825662599995, 'y': 26.182706300000063, 'spatialReference': {'wkid': 4326, 'latestWkid': 4326}}"
165,167,"3001 Santa Fe St Mission, TX 78572 Mission, TX 78572 Mission, TX 78572 Mission, TX 78572",350000,5,4,3719,Mission,78572,TX,26.1728501031088,-98.2968047525781,"{'x': -98.29697269099995, 'y': 26.172991823000075, 'spatialReference': {'wkid': 4326, 'latestWkid': 4326}}"
166,168,"107 Rio Grande Dr Mission, TX 78572 Mission, TX 78572 Mission, TX 78572 Mission, TX 78572",494000,5,7,4950,Mission,78572,TX,26.1890587176563,-98.2933821507646,"{'x': -98.29340108399998, 'y': 26.188877482000066, 'spatialReference': {'wkid': 4326, 'latestWkid': 4326}}"
167,169,"2203 Truman St Mission, TX 78572 Mission, TX 78572 Mission, TX 78572 Mission, TX 78572",156000,3,2,1845,Mission,78572,TX,26.2319166916595,-98.3400508406849,"{'x': -98.34009988699995, 'y': 26.230761765000068, 'spatialReference': {'wkid': 4326, 'latestWkid': 4326}}"
168,170,"2903 Capri Ct Mission, TX 78572 Mission, TX 78572 Mission, TX 78572 Mission, TX 78572",375000,3,4,3446,Mission,78572,TX,26.2280628113049,-98.3767135906025,"{'x': -98.29141865999998, 'y': 26.17304972100004, 'spatialReference': {'wkid': 4326, 'latestWkid': 4326}}"
169,171,"1809 Sebastian St Mission, TX 78572 Mission, TX 78572 Mission, TX 78572 Mission, TX 78572",398750,5,7,4731,Mission,78572,TX,26.1952582886091,-98.2986354741223,"{'x': -98.29922379099997, 'y': 26.195261216000063, 'spatialReference': {'wkid': 4326, 'latestWkid': 4326}}"
170,172,"2216 Torrie Ln Mission, TX 78572 Mission, TX 78572 Mission, TX 78572 Mission, TX 78572",217000,4,2,2153,Mission,78572,TX,26.2216188629412,-98.279226898761,"{'x': -98.27933284299996, 'y': 26.221770389000028, 'spatialReference': {'wkid': 4326, 'latestWkid': 4326}}"
171,173,"3901 San Efrain Mission, TX 78572 Mission, TX 78572 Mission, TX 78572 Mission, TX 78572",495000,5,6,3328,Mission,78572,TX,26.1719455990723,-98.2890079468805,"{'x': -98.28895398299994, 'y': 26.17218971400007, 'spatialReference': {'wkid': 4326, 'latestWkid': 4326}}"
172,174,"907 E Veterans Blvd Palmview, TX 78572 Palmview, TX 78572 Palmview, TX 78572 Palmview, TX 78572",274837,3,3,2578,Palmview,78572,TX,26.2345916078424,-98.3593581751301,"{'x': -98.35907545099997, 'y': 26.23463870300003, 'spatialReference': {'wkid': 4326, 'latestWkid': 4326}}"
173,175,"2211 Lilly Cove Dr Mission, TX 78572 Mission, TX 78572 Mission, TX 78572 Mission, TX 78572",219000,3,3,2565,Mission,78572,TX,26.2228179722619,-98.2893819969898,"{'x': -98.28918831799996, 'y': 26.222797184000058, 'spatialReference': {'wkid': 4326, 'latestWkid': 4326}}"
174,176,"2503 San Esteban St Mission, TX 78572 Mission, TX 78572 Mission, TX 78572 Mission, TX 78572",269000,4,3,2392,Mission,78572,TX,26.2280628113049,-98.3767135906025,"{'x': -98.30503604599994, 'y': 26.164709897000023, 'spatialReference': {'wkid': 4326, 'latestWkid': 4326}}"
175,177,"1208 Cimarron Dr Mission, TX 78572 Mission, TX 78572 Mission, TX 78572 Mission, TX 78572",299000,5,4,3716,Mission,78572,TX,26.189076327524,-98.2965959120115,"{'x': -98.29637180999998, 'y': 26.189099319000036, 'spatialReference': {'wkid': 4326, 'latestWkid': 4326}}"
176,178,"2102 Colorado St Mission, TX 78572 Mission, TX 78572 Mission, TX 78572 Mission, TX 78572",185000,3,3,1590,Mission,78572,TX,26.192982217117,-98.2936659934227,"{'x': -98.29353945699995, 'y': 26.193106405000037, 'spatialReference': {'wkid': 4326, 'latestWkid': 4326}}"
177,179,"102 Saturn St Mission, TX 78572 Mission, TX 78572 Mission, TX 78572 Mission, TX 78572",119900,2,2,1164,Mission,78572,TX,26.203645377528,-98.3056555926642,"{'x': -98.30545025899994, 'y': 26.203608377000023, 'spatialReference': {'wkid': 4326, 'latestWkid': 4326}}"
178,180,"806 Carolina Ave Mission, TX 78572 Mission, TX 78572 Mission, TX 78572 Mission, TX 78572",45000,2,1,910,Mission,78572,TX,26.199178970231,-98.3434619285584,"{'x': -98.34322598899996, 'y': 26.198697657000025, 'spatialReference': {'wkid': 4326, 'latestWkid': 4326}}"
179,181,"237 S Greene Rd Palmview, TX 78572 Palmview, TX 78572 Palmview, TX 78572 Palmview, TX 78572",295000,6,4,3899,Palmview,78572,TX,26.233519929511,-98.3852158069983,"{'x': -98.38529086199998, 'y': 26.23342778800003, 'spatialReference': {'wkid': 4326, 'latestWkid': 4326}}"
180,182,"2022 E 21st St Mission, TX 78572 Mission, TX 78572 Mission, TX 78572 Mission, TX 78572",255000,4,3,2417,Mission,78572,TX,26.2231276963215,-98.2996627432994,"{'x': -98.29010245799998, 'y': 26.22084670000004, 'spatialReference': {'wkid': 4326, 'latestWkid': 4326}}"
181,183,"3100 San Sebastian St Mission, TX 78572 Mission, TX 78572 Mission, TX 78572 Mission, TX 78572",219800,4,3,3060,Mission,78572,TX,26.1573751082734,-98.3005902310681,"{'x': -98.30021362299999, 'y': 26.15741567400005, 'spatialReference': {'wkid': 4326, 'latestWkid': 4326}}"
182,184,"2024 Lambeth Way Mission, TX 78572 Mission, TX 78572 Mission, TX 78572 Mission, TX 78572",430000,4,4,4111,Mission,78572,TX,26.2124424544939,-98.292186478121,"{'x': -98.29174250599999, 'y': 26.212459696000053, 'spatialReference': {'wkid': 4326, 'latestWkid': 4326}}"
183,185,"3606 Santa Erica St Mission, TX 78572 Mission, TX 78572 Mission, TX 78572 Mission, TX 78572",265000,4,3,3318,Mission,78572,TX,26.1671675588382,-98.3036673780453,"{'x': -98.30322701899996, 'y': 26.17228710300003, 'spatialReference': {'wkid': 4326, 'latestWkid': 4326}}"
184,186,"3300 San Armando Mission, TX 78572 Mission, TX 78572 Mission, TX 78572 Mission, TX 78572",250000,4,3,2944,Mission,78572,TX,26.1691451345749,-98.2959676510792,"{'x': -98.29595423899997, 'y': 26.16932371100006, 'spatialReference': {'wkid': 4326, 'latestWkid': 4326}}"
185,187,"2402 E 21st St Mission, TX 78572 Mission, TX 78572 Mission, TX 78572 Mission, TX 78572",299000,4,4,3592,Mission,78572,TX,26.2197280933743,-98.2822249763839,"{'x': -98.28363138799995, 'y': 26.219970808000028, 'spatialReference': {'wkid': 4326, 'latestWkid': 4326}}"
186,188,"1010 Red River St Mission, TX 78572 Mission, TX 78572 Mission, TX 78572 Mission, TX 78572",535000,5,6,3540,Mission,78572,TX,26.1923955464137,-98.2975652671235,"{'x': -98.29771884299998, 'y': 26.19208322000003, 'spatialReference': {'wkid': 4326, 'latestWkid': 4326}}"
187,189,"1810 Sabinal St Mission, TX 78572 Mission, TX 78572 Mission, TX 78572 Mission, TX 78572",729500,4,6,5932,Mission,78572,TX,26.191104016359,-98.2996810771264,"{'x': -98.29976384999998, 'y': 26.19115164400006, 'spatialReference': {'wkid': 4326, 'latestWkid': 4326}}"
188,190,"819 Rio Grande Dr Mission, TX 78572 Mission, TX 78572 Mission, TX 78572 Mission, TX 78572",392106,4,3,5396,Mission,78572,TX,26.1833127941908,-98.3013638633301,"{'x': -98.29985200899995, 'y': 26.182874747000028, 'spatialReference': {'wkid': 4326, 'latestWkid': 4326}}"
189,191,"1801 Melissa Rae Dr Mission, TX 78572 Mission, TX 78572 Mission, TX 78572 Mission, TX 78572",329000,4,4,3034,Mission,78572,TX,26.219978063097,-98.3000070800368,"{'x': -98.30003594099998, 'y': 26.219457901000055, 'spatialReference': {'wkid': 4326, 'latestWkid': 4326}}"
190,192,"3008 San Sebastian St Mission, TX 78572 Mission, TX 78572 Mission, TX 78572 Mission, TX 78572",219000,4,4,2456,Mission,78572,TX,26.1573520960618,-98.3001276994272,"{'x': -98.30075362299999, 'y': 26.15748670000005, 'spatialReference': {'wkid': 4326, 'latestWkid': 4326}}"
191,193,"400 Aquarius St Mission, TX 78572 Mission, TX 78572 Mission, TX 78572 Mission, TX 78572",109800,2,2,1744,Mission,78572,TX,26.2057589,-98.3062288,"{'x': -98.30609943799999, 'y': 26.205725776000065, 'spatialReference': {'wkid': 4326, 'latestWkid': 4326}}"
192,194,"1718 Aries St Mission, TX 78572 Mission, TX 78572 Mission, TX 78572 Mission, TX 78572",109000,2,2,1225,Mission,78572,TX,26.2045062434449,-98.2992151359916,"{'x': -98.29963409699997, 'y': 26.204599667000025, 'spatialReference': {'wkid': 4326, 'latestWkid': 4326}}"
193,195,"2420 Carianna Ave Mission, TX 78572 Mission, TX 78572 Mission, TX 78572 Mission, TX 78572",185000,3,2,1907,Mission,78572,TX,26.2058253218835,-98.2834543107985,"{'x': -98.28497183999997, 'y': 26.20592461600006, 'spatialReference': {'wkid': 4326, 'latestWkid': 4326}}"
194,196,"1104 Rosa Ave Mission, TX 78572 Mission, TX 78572 Mission, TX 78572 Mission, TX 78572",140000,2,1,1540,Mission,78572,TX,26.2156785045103,-98.3162666019682,"{'x': -98.31627835699999, 'y': 26.215908978000073, 'spatialReference': {'wkid': 4326, 'latestWkid': 4326}}"
195,197,"602 Rio Grande Dr Mission, TX 78572 Mission, TX 78572 Mission, TX 78572 Mission, TX 78572",249500,3,4,3029,Mission,78572,TX,26.1861679194904,-98.3017236565739,"{'x': -98.30180882499997, 'y': 26.185993146000044, 'spatialReference': {'wkid': 4326, 'latestWkid': 4326}}"
196,198,"1806 Dolores Del Rio Ave Mission, TX 78572 Mission, TX 78572 Mission, TX 78572 Mission, TX 78572",149900,4,3,1424,Mission,78572,TX,26.2288610492316,-98.3505522905011,"{'x': -98.35074190799997, 'y': 26.22812181000006, 'spatialReference': {'wkid': 4326, 'latestWkid': 4326}}"
197,199,"1104 Frio St Mission, TX 78572 Mission, TX 78572 Mission, TX 78572 Mission, TX 78572",293500,4,5,3684,Mission,78572,TX,26.1912623988938,-98.3009175976356,"{'x': -98.30146749499994, 'y': 26.187736529000063, 'spatialReference': {'wkid': 4326, 'latestWkid': 4326}}"
198,200,"1811 Reagan St Mission, TX 78572 Mission, TX 78572 Mission, TX 78572 Mission, TX 78572",79900,2,2,1063,Mission,78572,TX,26.2432038061252,-98.4065429877813,"{'x': -98.40636004099997, 'y': 26.243164299000057, 'spatialReference': {'wkid': 4326, 'latestWkid': 4326}}"
199,201,"3004 Santa Lorena Mission, TX 78572 Mission, TX 78572 Mission, TX 78572 Mission, TX 78572",225000,3,3,2103,Mission,78572,TX,26.1722815511694,-98.2902503034206,"{'x': -98.29043746399998, 'y': 26.171890114000064, 'spatialReference': {'wkid': 4326, 'latestWkid': 4326}}"
200,202,"4104 San Rodrigo Mission, TX 78572 Mission, TX 78572 Mission, TX 78572 Mission, TX 78572",177000,3,2,1934,Mission,78572,TX,26.1684826218034,-98.2873344938277,"{'x': -98.28729437399994, 'y': 26.168683758000043, 'spatialReference': {'wkid': 4326, 'latestWkid': 4326}}"
201,203,"2011 Nicklaus Dr Mission, TX 78572 Mission, TX 78572 Mission, TX 78572 Mission, TX 78572",102000,3,3,1390,Mission,78572,TX,26.2458578907626,-98.4092627920152,"{'x': -98.40904114999995, 'y': 26.246754964000047, 'spatialReference': {'wkid': 4326, 'latestWkid': 4326}}"
202,204,"512 Rio Grande Dr Mission, TX 78572 Mission, TX 78572 Mission, TX 78572 Mission, TX 78572",295000,4,4,3596,Mission,78572,TX,26.2171018327056,-98.3086527310801,"{'x': -98.30161397299997, 'y': 26.186938283000075, 'spatialReference': {'wkid': 4326, 'latestWkid': 4326}}"
203,205,"5405 San Diego Mission, TX 78572 Mission, TX 78572 Mission, TX 78572 Mission, TX 78572",197000,3,2,1694,Mission,78572,TX,26.2280628113049,-98.3767135906025,"{'x': -98.30149186799997, 'y': 26.17529705900006, 'spatialReference': {'wkid': 4326, 'latestWkid': 4326}}"
204,206,"1605 Palazzo Mission, TX 78572 Mission, TX 78572 Mission, TX 78572 Mission, TX 78572",699000,4,4,5488,Mission,78572,TX,26.1880464827762,-98.305283807007,"{'x': -98.30489902199997, 'y': 26.188076504000037, 'spatialReference': {'wkid': 4326, 'latestWkid': 4326}}"
205,207,"7207 Bogey Dr Mission, TX 78572 Mission, TX 78572 Mission, TX 78572 Mission, TX 78572",57900,1,1,575,Mission,78572,TX,26.2526855639108,-98.4086555894205,"{'x': -98.40861420599998, 'y': 26.25278873700006, 'spatialReference': {'wkid': 4326, 'latestWkid': 4326}}"
206,208,"3102 Highland Ave Mission, TX 78572 Mission, TX 78572 Mission, TX 78572 Mission, TX 78572",105000,4,2,1197,Mission,78572,TX,26.2387191,-98.3098037,"{'x': -98.31001091599995, 'y': 26.238742701000035, 'spatialReference': {'wkid': 4326, 'latestWkid': 4326}}"
207,209,"2405 W Interstate Highway 2 Mission, TX 78572 Mission, TX 78572 Mission, TX 78572 Mission, TX 78572",155000,3,2,1870,Mission,78572,TX,26.2280628113049,-98.3767135906025,"{'x': -98.35198251599996, 'y': 26.219650863000027, 'spatialReference': {'wkid': 4326, 'latestWkid': 4326}}"
208,210,"2209 Red River Dr Mission, TX 78572 Mission, TX 78572 Mission, TX 78572 Mission, TX 78572",385000,3,6,3599,Mission,78572,TX,26.184254769967,-98.2972285068375,"{'x': -98.29718604499999, 'y': 26.184066191000056, 'spatialReference': {'wkid': 4326, 'latestWkid': 4326}}"
209,211,"1911 Audrey Dr Mission, TX 78572 Mission, TX 78572 Mission, TX 78572 Mission, TX 78572",264000,4,3,3047,Mission,78572,TX,26.1943737241581,-98.2975122101563,"{'x': -98.29753645799997, 'y': 26.19420529300004, 'spatialReference': {'wkid': 4326, 'latestWkid': 4326}}"
210,212,"2015 Sabinal St Mission, TX 78572 Mission, TX 78572 Mission, TX 78572 Mission, TX 78572",210000,3,3,2014,Mission,78572,TX,26.1912733583705,-98.2954140564369,"{'x': -98.29540003699998, 'y': 26.19111644900005, 'spatialReference': {'wkid': 4326, 'latestWkid': 4326}}"
211,213,"1911 Adams St Mission, TX 78572 Mission, TX 78572 Mission, TX 78572 Mission, TX 78572",629900,5,6,4161,Mission,78572,TX,26.2283062573196,-98.3442105829988,"{'x': -98.34404160799994, 'y': 26.227943245000063, 'spatialReference': {'wkid': 4326, 'latestWkid': 4326}}"
212,214,"211 S Mayberry St Mission, TX 78572 Mission, TX 78572 Mission, TX 78572 Mission, TX 78572",270000,4,2,1434,Mission,78572,TX,26.2017260565336,-98.3196582124603,"{'x': -98.31991842299999, 'y': 26.201761953000073, 'spatialReference': {'wkid': 4326, 'latestWkid': 4326}}"
213,215,"2607 Redstone Dr Mission, TX 78572 Mission, TX 78572 Mission, TX 78572 Mission, TX 78572",310000,4,3,2954,Mission,78572,TX,26.2035402655582,-98.2816917116237,"{'x': -98.28124573499997, 'y': 26.203420256000072, 'spatialReference': {'wkid': 4326, 'latestWkid': 4326}}"
214,216,"2011 Sabinal St Mission, TX 78572 Mission, TX 78572 Mission, TX 78572 Mission, TX 78572",299000,5,4,3184,Mission,78572,TX,26.1912767091377,-98.2958530220402,"{'x': -98.29586685299995, 'y': 26.191125449000026, 'spatialReference': {'wkid': 4326, 'latestWkid': 4326}}"
215,217,"1404 Encantado Cir Palmview, TX 78572 Palmview, TX 78572 Palmview, TX 78572 Palmview, TX 78572",379900,4,4,3012,Palmview,78572,TX,26.23811168838,-98.3858505468103,"{'x': -98.38592579399995, 'y': 26.23787630000004, 'spatialReference': {'wkid': 4326, 'latestWkid': 4326}}"
216,218,"513 Castillos Y Diamantes St Mission, TX 78572 Mission, TX 78572 Mission, TX 78572 Mission, TX 78572",151251,3,2,1701,Mission,78572,TX,26.2280628113049,-98.3767135906025,"{'x': -98.35626599999995, 'y': 26.212130998000077, 'spatialReference': {'wkid': 4326, 'latestWkid': 4326}}"
217,219,"3500 San Andres Ct Mission, TX 78572 Mission, TX 78572 Mission, TX 78572 Mission, TX 78572",229900,4,4,2794,Mission,78572,TX,26.1574546572876,-98.2961578109977,"{'x': -98.29608744699999, 'y': 26.157666731000063, 'spatialReference': {'wkid': 4326, 'latestWkid': 4326}}"
218,220,"3208 San Angelo St Mission, TX 78572 Mission, TX 78572 Mission, TX 78572 Mission, TX 78572",237000,4,3,3033,Mission,78572,TX,26.1593376289369,-98.2984609537826,"{'x': -98.29805378999998, 'y': 26.15936672500004, 'spatialReference': {'wkid': 4326, 'latestWkid': 4326}}"
219,221,"1607 Jonathon Dr Mission, TX 78572 Mission, TX 78572 Mission, TX 78572 Mission, TX 78572",350000,4,4,2943,Mission,78572,TX,26.194723,-98.3038216,"{'x': -98.30386812599994, 'y': 26.19453124200004, 'spatialReference': {'wkid': 4326, 'latestWkid': 4326}}"
220,222,"3401 Plantation Grove Blvd Mission, TX 78572 Mission, TX 78572 Mission, TX 78572 Mission, TX 78572",354990,5,4,4810,Mission,78572,TX,26.2280628113049,-98.3767135906025,"{'x': -98.29552041599999, 'y': 26.165049504000024, 'spatialReference': {'wkid': 4326, 'latestWkid': 4326}}"
221,223,"2701 San Lucas Mission, TX 78572 Mission, TX 78572 Mission, TX 78572 Mission, TX 78572",429000,6,7,4428,Mission,78572,TX,26.1776417396476,-98.3009932624156,"{'x': -98.30107202299996, 'y': 26.17747442900003, 'spatialReference': {'wkid': 4326, 'latestWkid': 4326}}"
222,224,"1605 Crown Pointe Blvd Mission, TX 78572 Mission, TX 78572 Mission, TX 78572 Mission, TX 78572",580000,4,5,3690,Mission,78572,TX,26.2197548185809,-98.2996833149877,"{'x': -98.29988612899996, 'y': 26.218610369000032, 'spatialReference': {'wkid': 4326, 'latestWkid': 4326}}"
223,225,"3005 Santa Rita Mission, TX 78572 Mission, TX 78572 Mission, TX 78572 Mission, TX 78572",285000,3,4,2303,Mission,78572,TX,26.1716868027356,-98.2914206104324,"{'x': -98.29148734299997, 'y': 26.171294456000055, 'spatialReference': {'wkid': 4326, 'latestWkid': 4326}}"
224,226,"3911 Pelican Way Mission, TX 78572 Mission, TX 78572 Mission, TX 78572 Mission, TX 78572",185000,3,2,1776,Mission,78572,TX,26.1900516476433,-98.3765172910832,"{'x': -98.37588498299999, 'y': 26.190050733000078, 'spatialReference': {'wkid': 4326, 'latestWkid': 4326}}"
225,227,"2014 Sabinal St # 5 Mission, TX 78572 Mission, TX 78572 Mission, TX 78572 Mission, TX 78572",235000,3,2,3593,Mission,78572,TX,26.1911185160674,-98.2960566242007,"{'x': -98.29570408799998, 'y': 26.19106455800005, 'spatialReference': {'wkid': 4326, 'latestWkid': 4326}}"
226,228,"221 W 14th St Mission, TX 78572 Mission, TX 78572 Mission, TX 78572 Mission, TX 78572",79000,3,1,1290,Mission,78572,TX,26.2201336903964,-98.3263701625256,"{'x': -98.32690854499998, 'y': 26.220130311000048, 'spatialReference': {'wkid': 4326, 'latestWkid': 4326}}"
227,229,"1005 Dennise Ct Mission, TX 78572 Mission, TX 78572 Mission, TX 78572 Mission, TX 78572",225000,3,2,2138,Mission,78572,TX,26.1928509681766,-98.2993534958437,"{'x': -98.29942146599996, 'y': 26.19284865000003, 'spatialReference': {'wkid': 4326, 'latestWkid': 4326}}"
228,230,"4004 San Clemente Mission, TX 78572 Mission, TX 78572 Mission, TX 78572 Mission, TX 78572",490000,5,6,4226,Mission,78572,TX,26.1706933448927,-98.2878249382588,"{'x': -98.28767616099998, 'y': 26.170509896000056, 'spatialReference': {'wkid': 4326, 'latestWkid': 4326}}"
229,231,"902 Cimarron Dr Mission, TX 78572 Mission, TX 78572 Mission, TX 78572 Mission, TX 78572",550000,4,4,4385,Mission,78572,TX,26.1924911121137,-98.295574348783,"{'x': -98.29585233099999, 'y': 26.19226268700004, 'spatialReference': {'wkid': 4326, 'latestWkid': 4326}}"
230,232,"4103 Santa Marina St Mission, TX 78572 Mission, TX 78572 Mission, TX 78572 Mission, TX 78572",229600,4,3,2781,Mission,78572,TX,26.1618918112248,-98.3005059027743,"{'x': -98.30070450699998, 'y': 26.161950751000063, 'spatialReference': {'wkid': 4326, 'latestWkid': 4326}}"
231,233,"1817 Dolores Del Rio Ave Mission, TX 78572 Mission, TX 78572 Mission, TX 78572 Mission, TX 78572",150000,4,4,3339,Mission,78572,TX,26.2287445948078,-98.3507579864037,"{'x': -98.35069114299995, 'y': 26.228792190000036, 'spatialReference': {'wkid': 4326, 'latestWkid': 4326}}"
232,234,"1715 School Ln Mission, TX 78572 Mission, TX 78572 Mission, TX 78572 Mission, TX 78572",185000,3,3,2526,Mission,78572,TX,26.2142897170462,-98.2978236614877,"{'x': -98.29782041899995, 'y': 26.214088493000077, 'spatialReference': {'wkid': 4326, 'latestWkid': 4326}}"
233,235,"2102 Green Gate Cir E Palmview, TX 78572 Palmview, TX 78572 Palmview, TX 78572 Palmview, TX 78572",100000,2,2,1428,Palmview,78572,TX,26.2280628113049,-98.3767135906025,"{'x': -98.37129573199996, 'y': 26.214730733000067, 'spatialReference': {'wkid': 4326, 'latestWkid': 4326}}"
234,236,"2114 Hole In One Dr Mission, TX 78572 Mission, TX 78572 Mission, TX 78572 Mission, TX 78572",269000,2,3,2004,Mission,78572,TX,26.2489605706697,-98.4083367321438,"{'x': -98.40868245699994, 'y': 26.24871676600003, 'spatialReference': {'wkid': 4326, 'latestWkid': 4326}}"
235,237,"1013 Frio St Mission, TX 78572 Mission, TX 78572 Mission, TX 78572 Mission, TX 78572",239500,4,4,2244,Mission,78572,TX,26.1923360857363,-98.3002047711358,"{'x': -98.30169492499994, 'y': 26.18780257000003, 'spatialReference': {'wkid': 4326, 'latestWkid': 4326}}"
236,238,"2805 Santa Laura Mission, TX 78572 Mission, TX 78572 Mission, TX 78572 Mission, TX 78572",495000,4,7,3678,Mission,78572,TX,26.1738445563029,-98.2866565277311,"{'x': -98.28670995299996, 'y': 26.173317113000053, 'spatialReference': {'wkid': 4326, 'latestWkid': 4326}}"
237,239,"2911 Silver Oak Dr Mission, TX 78572 Mission, TX 78572 Mission, TX 78572 Mission, TX 78572",198000,3,2,1500,Mission,78572,TX,26.2280628113049,-98.3767135906025,"{'x': -98.33182025899998, 'y': 26.24049020900003, 'spatialReference': {'wkid': 4326, 'latestWkid': 4326}}"
238,240,"4007 Green Jay Dr Mission, TX 78572 Mission, TX 78572 Mission, TX 78572 Mission, TX 78572",219000,4,3,3614,Mission,78572,TX,26.1940147439244,-98.3770768183841,"{'x': -98.37627802399999, 'y': 26.194142558000067, 'spatialReference': {'wkid': 4326, 'latestWkid': 4326}}"
239,241,"3301 Santa Olivia St Mission, TX 78572 Mission, TX 78572 Mission, TX 78572 Mission, TX 78572",299000,4,4,2977,Mission,78572,TX,26.1700204142145,-98.3000207213534,"{'x': -98.30024044099997, 'y': 26.170044559000075, 'spatialReference': {'wkid': 4326, 'latestWkid': 4326}}"
240,242,"4102 Santa Veronica Mission, TX 78572 Mission, TX 78572 Mission, TX 78572 Mission, TX 78572",255000,4,2,2585,Mission,78572,TX,26.2280628113049,-98.3767135906025,"{'x': -98.30171149899996, 'y': 26.165859701000045, 'spatialReference': {'wkid': 4326, 'latestWkid': 4326}}"
241,243,"2201 Washington Ave Mission, TX 78572 Mission, TX 78572 Mission, TX 78572 Mission, TX 78572",269000,3,4,2298,Mission,78572,TX,26.230825091907,-98.3413350239492,"{'x': -98.34116076599997, 'y': 26.230788293000046, 'spatialReference': {'wkid': 4326, 'latestWkid': 4326}}"
242,244,"1023 W Palma Vista Dr Palmview, TX 78572 Palmview, TX 78572 Palmview, TX 78572 Palmview, TX 78572",254500,3,3,2728,Palmview,78572,TX,26.2280628113049,-98.3767135906025,"{'x': -98.37778870899996, 'y': 26.233942795000075, 'spatialReference': {'wkid': 4326, 'latestWkid': 4326}}"
243,245,"1015 Red River St Mission, TX 78572 Mission, TX 78572 Mission, TX 78572 Mission, TX 78572",368000,4,4,3308,Mission,78572,TX,26.1916418562991,-98.2977347235695,"{'x': -98.29775979899995, 'y': 26.19185214600003, 'spatialReference': {'wkid': 4326, 'latestWkid': 4326}}"
244,246,"4005 Pelican Way Mission, TX 78572 Mission, TX 78572 Mission, TX 78572 Mission, TX 78572",229900,2,2,1473,Mission,78572,TX,26.1898080776852,-98.3747354605884,"{'x': -98.37618198299998, 'y': 26.190095733000078, 'spatialReference': {'wkid': 4326, 'latestWkid': 4326}}"
245,247,"611 S Castillos Y Diamantes St Mission, TX 78572 Mission, TX 78572 Mission, TX 78572 Mission, TX 78572",165414,3,2,1386,Mission,78572,TX,26.2280628113049,-98.3767135906025,"{'x': -98.35626599999995, 'y': 26.212130998000077, 'spatialReference': {'wkid': 4326, 'latestWkid': 4326}}"
246,248,"3304 San Gabriel St Mission, TX 78572 Mission, TX 78572 Mission, TX 78572 Mission, TX 78572",180000,3,3,2184,Mission,78572,TX,26.1619769721476,-98.2971570750752,"{'x': -98.29712301299998, 'y': 26.162156725000045, 'spatialReference': {'wkid': 4326, 'latestWkid': 4326}}"
247,249,"4106 Pelican Way Mission, TX 78572 Mission, TX 78572 Mission, TX 78572 Mission, TX 78572",198000,1,2,1440,Mission,78572,TX,26.1903313953456,-98.3772523994082,"{'x': -98.37764532199998, 'y': 26.190339358000074, 'spatialReference': {'wkid': 4326, 'latestWkid': 4326}}"
248,250,"2301 Fairway Ct Mission, TX 78572 Mission, TX 78572 Mission, TX 78572 Mission, TX 78572",225000,3,2,2526,Mission,78572,TX,26.2516863083163,-98.4147749113864,"{'x': -98.41463865299994, 'y': 26.25153920200006, 'spatialReference': {'wkid': 4326, 'latestWkid': 4326}}"
249,251,"2911 W Loop 374 Palmview, TX 78572 Palmview, TX 78572 Palmview, TX 78572 Palmview, TX 78572",225000,3,2,1595,Palmview,78572,TX,26.2280628113049,-98.3767135906025,"{'x': -98.40321338399997, 'y': 26.22432860400005, 'spatialReference': {'wkid': 4326, 'latestWkid': 4326}}"
250,252,"7476 Floyd Dr Mission, TX 78572 Mission, TX 78572 Mission, TX 78572 Mission, TX 78572",99500,2,1,954,Mission,78572,TX,26.2442504594156,-98.415661119586,"{'x': -98.41548866499994, 'y': 26.244184777000044, 'spatialReference': {'wkid': 4326, 'latestWkid': 4326}}"
251,253,"3509 Oriole Dr Mission, TX 78572 Mission, TX 78572 Mission, TX 78572 Mission, TX 78572",216459,3,2,2065,Mission,78572,TX,26.2280628113049,-98.3767135906025,"{'x': -98.37182151299999, 'y': 26.192086481000047, 'spatialReference': {'wkid': 4326, 'latestWkid': 4326}}"
252,254,"4109 Wescan Ln Mission, TX 78572 Mission, TX 78572 Mission, TX 78572 Mission, TX 78572",199900,3,2,1826,Mission,78572,TX,26.205129756223,-98.3748258784906,"{'x': -98.37539545799996, 'y': 26.205286758000057, 'spatialReference': {'wkid': 4326, 'latestWkid': 4326}}"
253,255,"4402 Santa Inez St Mission, TX 78572 Mission, TX 78572 Mission, TX 78572 Mission, TX 78572",215000,4,3,2751,Mission,78572,TX,26.1586050111443,-98.2989405361061,"{'x': -98.29748331899998, 'y': 26.164346567000052, 'spatialReference': {'wkid': 4326, 'latestWkid': 4326}}"
254,256,"00 W Business 83 Ave Mission, TX 78572 Mission, TX 78572 Mission, TX 78572 Mission, TX 78572",99000,3,1,840,Mission,78572,TX,26.2280628113049,-98.3767135906025,"{'x': -98.30288711099996, 'y': 26.203169462000062, 'spatialReference': {'wkid': 4326, 'latestWkid': 4326}}"
255,257,"1926 Lost Greens Dr Mission, TX 78572 Mission, TX 78572 Mission, TX 78572 Mission, TX 78572",65000,1,1,472,Mission,78572,TX,26.250057488139,-98.4141696240425,"{'x': -98.41362005099995, 'y': 26.249247481000054, 'spatialReference': {'wkid': 4326, 'latestWkid': 4326}}"
256,258,"3710 Mallard Drive Mission Tx Mission, TX 78572 Mission, TX 78572 Mission, TX 78572 Mission, TX 78572",100203,1,1,480,Mission,78572,TX,26.2280628113049,-98.3767135906025,"{'x': -98.37298860799996, 'y': 26.18908663800005, 'spatialReference': {'wkid': 4326, 'latestWkid': 4326}}"
257,259,"211 N Tecate Dr Mission, TX 78572 Mission, TX 78572 Mission, TX 78572 Mission, TX 78572",117000,3,2,1566,Mission,78572,TX,26.2120143299176,-98.354812991257,"{'x': -98.35450986699999, 'y': 26.212737206000043, 'spatialReference': {'wkid': 4326, 'latestWkid': 4326}}"
258,260,"2316 Fairway Ct Mission, TX 78572 Mission, TX 78572 Mission, TX 78572 Mission, TX 78572",158900,3,2,1449,Mission,78572,TX,26.2516540819027,-98.4134969058068,"{'x': -98.41382431599999, 'y': 26.251665769000056, 'spatialReference': {'wkid': 4326, 'latestWkid': 4326}}"
259,261,"404 Scorpio St Mission, TX 78572 Mission, TX 78572 Mission, TX 78572 Mission, TX 78572",145000,2,3,1903,Mission,78572,TX,26.2050854,-98.300328,"{'x': -98.30045836799997, 'y': 26.205090978000044, 'spatialReference': {'wkid': 4326, 'latestWkid': 4326}}"
260,262,"705 S Bentsen Palm Dr Mission, TX 78572 Mission, TX 78572 Mission, TX 78572 Mission, TX 78572",375000,3,2,1206,Mission,78572,TX,26.2035916623496,-98.3759037044013,"{'x': -98.37174122899995, 'y': 26.22753344700004, 'spatialReference': {'wkid': 4326, 'latestWkid': 4326}}"
261,263,"3406 San Angelo St Mission, TX 78572 Mission, TX 78572 Mission, TX 78572 Mission, TX 78572",210000,4,3,2659,Mission,78572,TX,26.1591412454498,-98.2968686679639,"{'x': -98.29643476499996, 'y': 26.15914172500004, 'spatialReference': {'wkid': 4326, 'latestWkid': 4326}}"
262,264,"7729 Villa Rama South St Mission, TX 78572 Mission, TX 78572 Mission, TX 78572 Mission, TX 78572",199000,3,2,2995,Mission,78572,TX,26.2280628113049,-98.3767135906025,"{'x': -98.41536518099997, 'y': 26.232166667000058, 'spatialReference': {'wkid': 4326, 'latestWkid': 4326}}"
263,266,"2308 Colorado St Mission, TX 78572 Mission, TX 78572 Mission, TX 78572 Mission, TX 78572",225000,3,3,3270,Mission,78572,TX,26.192719055638,-98.2928184046459,"{'x': -98.29068311499998, 'y': 26.192421525000043, 'spatialReference': {'wkid': 4326, 'latestWkid': 4326}}"
264,267,"2700 Santa Olivia St Mission, TX 78572 Mission, TX 78572 Mission, TX 78572 Mission, TX 78572",314900,4,5,4093,Mission,78572,TX,26.175557692155,-98.2994985716402,"{'x': -98.29937485199997, 'y': 26.175687004000054, 'spatialReference': {'wkid': 4326, 'latestWkid': 4326}}"
265,268,"1305 Marla Dr Palmview, TX 78572 Palmview, TX 78572 Palmview, TX 78572 Palmview, TX 78572",159000,3,2,2341,Palmview,78572,TX,26.2335463263171,-98.3853575436738,"{'x': -98.38545181599994, 'y': 26.233618758000034, 'spatialReference': {'wkid': 4326, 'latestWkid': 4326}}"
266,269,"2511 Brentwood Dr Mission, TX 78572 Mission, TX 78572 Mission, TX 78572 Mission, TX 78572",480000,5,4,5512,Mission,78572,TX,26.2131061310592,-98.2791216620923,"{'x': -98.27911206399995, 'y': 26.213173682000047, 'spatialReference': {'wkid': 4326, 'latestWkid': 4326}}"
267,270,"114 Rio Grande Dr Mission, TX 78572 Mission, TX 78572 Mission, TX 78572 Mission, TX 78572",549000,5,6,4361,Mission,78572,TX,26.1885680275341,-98.2939269674582,"{'x': -98.29391841599994, 'y': 26.188822521000077, 'spatialReference': {'wkid': 4326, 'latestWkid': 4326}}"
268,271,"1008 Travis St Mission, TX 78572 Mission, TX 78572 Mission, TX 78572 Mission, TX 78572",475000,3,5,3014,Mission,78572,TX,26.1953488578285,-98.3072378297315,"{'x': -98.30735016299997, 'y': 26.194346997000025, 'spatialReference': {'wkid': 4326, 'latestWkid': 4326}}"
269,272,"3601 Daniel Rd Palmview, TX 78572 Palmview, TX 78572 Palmview, TX 78572 Palmview, TX 78572",80000,3,1,1116,Palmview,78572,TX,26.2084370348764,-98.3687059751136,"{'x': -98.36873344699995, 'y': 26.208664765000037, 'spatialReference': {'wkid': 4326, 'latestWkid': 4326}}"
270,273,"1010 Rio Grande Dr Mission, TX 78572 Mission, TX 78572 Mission, TX 78572 Mission, TX 78572",280000,5,5,3439,Mission,78572,TX,26.1830006866022,-98.2939853290524,"{'x': -98.29383988299998, 'y': 26.182986578000055, 'spatialReference': {'wkid': 4326, 'latestWkid': 4326}}"
271,274,"3603 Denia Ct Mission, TX 78572 Mission, TX 78572 Mission, TX 78572 Mission, TX 78572",255000,3,4,2778,Mission,78572,TX,26.2280628113049,-98.3767135906025,"{'x': -98.29165826399998, 'y': 26.172315366000078, 'spatialReference': {'wkid': 4326, 'latestWkid': 4326}}"
272,275,"3010 San Patricio St Mission, TX 78572 Mission, TX 78572 Mission, TX 78572 Mission, TX 78572",240000,4,4,3033,Mission,78572,TX,26.1605578913303,-98.2999948605074,"{'x': -98.29993546099996, 'y': 26.160753784000065, 'spatialReference': {'wkid': 4326, 'latestWkid': 4326}}"
273,276,"1909 Jonathon Dr Mission, TX 78572 Mission, TX 78572 Mission, TX 78572 Mission, TX 78572",240000,3,3,2434,Mission,78572,TX,26.1936153695499,-98.2978648570499,"{'x': -98.29788762599998, 'y': 26.193459267000037, 'spatialReference': {'wkid': 4326, 'latestWkid': 4326}}"
274,277,"416 Rio Grande Dr Mission, TX 78572 Mission, TX 78572 Mission, TX 78572 Mission, TX 78572",274000,4,3,2210,Mission,78572,TX,26.1876875283115,-98.3001687623517,"{'x': -98.30048754699999, 'y': 26.187749551000024, 'spatialReference': {'wkid': 4326, 'latestWkid': 4326}}"
275,278,"1303 Sherwood Dr Mission, TX 78572 Mission, TX 78572 Mission, TX 78572 Mission, TX 78572",113000,3,2,1802,Mission,78572,TX,26.2315847296414,-98.4158955093817,"{'x': -98.41592801499996, 'y': 26.23096135700007, 'spatialReference': {'wkid': 4326, 'latestWkid': 4326}}"
276,279,"1900 Alex Drive Mission, TX 78572 Mission, TX 78572 Mission, TX 78572 Mission, TX 78572",234000,3,2,2255,Mission,78572,TX,26.1922784447464,-98.2989900903026,"{'x': -98.29906332599995, 'y': 26.192517465000037, 'spatialReference': {'wkid': 4326, 'latestWkid': 4326}}"
277,280,"1907 Polk St Mission, TX 78572 Mission, TX 78572 Mission, TX 78572 Mission, TX 78572",117000,2,2,1672,Mission,78572,TX,26.2441843063061,-98.405600298525,"{'x': -98.40540964999997, 'y': 26.244145047000075, 'spatialReference': {'wkid': 4326, 'latestWkid': 4326}}"
278,281,"510 Castillos Y Diamantes St Mission, TX 78572 Mission, TX 78572 Mission, TX 78572 Mission, TX 78572",143114,3,2,1395,Mission,78572,TX,26.2280628113049,-98.3767135906025,"{'x': -98.35626599999995, 'y': 26.212130998000077, 'spatialReference': {'wkid': 4326, 'latestWkid': 4326}}"
279,282,"29 Tulip St Mission, TX 78572 Mission, TX 78572 Mission, TX 78572 Mission, TX 78572",79900,2,2,898,Mission,78572,TX,26.2415273441063,-98.4054512268239,"{'x': -98.30311153199995, 'y': 26.20312040400006, 'spatialReference': {'wkid': 4326, 'latestWkid': 4326}}"
280,283,"3404 Santa Monica Mission, TX 78572 Mission, TX 78572 Mission, TX 78572 Mission, TX 78572",209900,3,2,2163,Mission,78572,TX,26.1691105029213,-98.3020703737204,"{'x': -98.30177991999994, 'y': 26.16908498500004, 'spatialReference': {'wkid': 4326, 'latestWkid': 4326}}"
281,284,"3303 San Fabian St Mission, TX 78572 Mission, TX 78572 Mission, TX 78572 Mission, TX 78572",169900,3,3,2216,Mission,78572,TX,26.161726029377,-98.2973541864909,"{'x': -98.29738829399997, 'y': 26.161539275000052, 'spatialReference': {'wkid': 4326, 'latestWkid': 4326}}"
282,285,"2110 W Griffin Pkwy Palmview, TX 78572 Palmview, TX 78572 Palmview, TX 78572 Palmview, TX 78572",1500000,3,2,1560,Palmview,78572,TX,26.2335657697309,-98.3510746270256,"{'x': -98.35143823099997, 'y': 26.23353932300006, 'spatialReference': {'wkid': 4326, 'latestWkid': 4326}}"
283,286,"2224 Colorado St Mission, TX 78572 Mission, TX 78572 Mission, TX 78572 Mission, TX 78572",425000,4,5,3874,Mission,78572,TX,26.1925880218581,-98.2918056487081,"{'x': -98.29139880299994, 'y': 26.192539279000073, 'spatialReference': {'wkid': 4326, 'latestWkid': 4326}}"
284,287,"66 Lampshire St # 66 Mission, TX 78572 Mission, TX 78572 Mission, TX 78572 Mission, TX 78572",46500,1,1,901,Mission,78572,TX,26.2149295409141,-98.3776312151004,"{'x': -98.37553165799994, 'y': 26.214452790000053, 'spatialReference': {'wkid': 4326, 'latestWkid': 4326}}"
285,288,"6916 Pradera Ln Palmview, TX 78572 Palmview, TX 78572 Palmview, TX 78572 Palmview, TX 78572",144530,4,2,1673,Palmview,78572,TX,26.2501760344931,-98.3970612998414,"{'x': -98.39879659999997, 'y': 26.250353286000063, 'spatialReference': {'wkid': 4326, 'latestWkid': 4326}}"
286,289,"3707 Oriole Drive Mission, TX 78572 Mission, TX 78572 Mission, TX 78572 Mission, TX 78572",239747,3,2,2313,Mission,78572,TX,26.2280628113049,-98.3767135906025,"{'x': -98.37231019699999, 'y': 26.192139310000073, 'spatialReference': {'wkid': 4326, 'latestWkid': 4326}}"
287,291,"2503 Fairway Ct Mission, TX 78572 Mission, TX 78572 Mission, TX 78572 Mission, TX 78572",248900,3,3,1898,Mission,78572,TX,26.2528465140179,-98.4129051826808,"{'x': -98.41283755699999, 'y': 26.25286904400008, 'spatialReference': {'wkid': 4326, 'latestWkid': 4326}}"
288,292,"2703 San Carlos Ct Mission, TX 78572 Mission, TX 78572 Mission, TX 78572 Mission, TX 78572",427000,5,4,4035,Mission,78572,TX,26.1767796592621,-98.3017139204819,"{'x': -98.30095321699997, 'y': 26.17642177500005, 'spatialReference': {'wkid': 4326, 'latestWkid': 4326}}"
289,293,"110 Mercury St Mission, TX 78572 Mission, TX 78572 Mission, TX 78572 Mission, TX 78572",139900,2,2,1483,Mission,78572,TX,26.2039315159125,-98.3040639381846,"{'x': -98.30386175899997, 'y': 26.203896545000077, 'spatialReference': {'wkid': 4326, 'latestWkid': 4326}}"
290,294,"6905 Lucero Ct Palmview, TX 78572 Palmview, TX 78572 Palmview, TX 78572 Palmview, TX 78572",240000,4,4,2769,Palmview,78572,TX,26.2460363802544,-98.397883284758,"{'x': -98.39785609999996, 'y': 26.246175769000047, 'spatialReference': {'wkid': 4326, 'latestWkid': 4326}}"
291,295,"2113 Hole In One Dr Mission, TX 78572 Mission, TX 78572 Mission, TX 78572 Mission, TX 78572",224900,2,3,2364,Mission,78572,TX,26.2280628113049,-98.3767135906025,"{'x': -98.40889260999995, 'y': 26.24869465100005, 'spatialReference': {'wkid': 4326, 'latestWkid': 4326}}"
292,296,"1814 Tyler St Mission, TX 78572 Mission, TX 78572 Mission, TX 78572 Mission, TX 78572",110000,2,2,1380,Mission,78572,TX,26.243624894534,-98.407550550361,"{'x': -98.40774790799998, 'y': 26.243656869000063, 'spatialReference': {'wkid': 4326, 'latestWkid': 4326}}"
293,297,"3804 Pelican Way Mission, TX 78572 Mission, TX 78572 Mission, TX 78572 Mission, TX 78572",72900,1,0,288,Mission,78572,TX,26.2280628113049,-98.3767135906025,"{'x': -98.37422800899998, 'y': 26.18986723100005, 'spatialReference': {'wkid': 4326, 'latestWkid': 4326}}"
294,298,"7604 Bogey Dr Mission, TX 78572 Mission, TX 78572 Mission, TX 78572 Mission, TX 78572",42000,1,1,480,Mission,78572,TX,26.253395855855,-98.4116639567995,"{'x': -98.41168731899995, 'y': 26.25325431400006, 'spatialReference': {'wkid': 4326, 'latestWkid': 4326}}"
295,299,"2400 Double Eagle Dr Mission, TX 78572 Mission, TX 78572 Mission, TX 78572 Mission, TX 78572",49000,1,1,887,Mission,78572,TX,26.2510285396527,-98.4091549566742,"{'x': -98.40921030299995, 'y': 26.25119644800003, 'spatialReference': {'wkid': 4326, 'latestWkid': 4326}}"
296,301,"2005 Kingfisher Ln Mission, TX 78572 Mission, TX 78572 Mission, TX 78572 Mission, TX 78572",207000,3,3,1896,Mission,78572,TX,26.2280628113049,-98.3767135906025,"{'x': -98.37201807599996, 'y': 26.19291419800004, 'spatialReference': {'wkid': 4326, 'latestWkid': 4326}}"
297,302,"1813 Mike Barrera St Mission, TX 78572 Mission, TX 78572 Mission, TX 78572 Mission, TX 78572",69995,3,2,672,Mission,78572,TX,26.2166332125077,-98.3951490223484,"{'x': -98.39343520299997, 'y': 26.216395543000033, 'spatialReference': {'wkid': 4326, 'latestWkid': 4326}}"
298,303,"2007 Blue Jay St Palmview, TX 78572 Palmview, TX 78572 Palmview, TX 78572 Palmview, TX 78572",95000,2,2,900,Palmview,78572,TX,26.2280628113049,-98.3767135906025,"{'x': -98.37180965999994, 'y': 26.215620604000037, 'spatialReference': {'wkid': 4326, 'latestWkid': 4326}}"
299,306,"1905 E Bogey Dr Mission, TX 78572 Mission, TX 78572 Mission, TX 78572 Mission, TX 78572",81000,2,2,910,Mission,78572,TX,26.2481935917235,-98.4114947683818,"{'x': -98.41090171199994, 'y': 26.248205085000052, 'spatialReference': {'wkid': 4326, 'latestWkid': 4326}}"
300,308,"500 S Paseo Del Rey St Mission, TX 78572 Mission, TX 78572 Mission, TX 78572 Mission, TX 78572",148653,3,2,1764,Mission,78572,TX,26.2280628113049,-98.3767135906025,"{'x': -98.35603370099994, 'y': 26.215454626000053, 'spatialReference': {'wkid': 4326, 'latestWkid': 4326}}"
301,309,"1809 Tyler St Mission, TX 78572 Mission, TX 78572 Mission, TX 78572 Mission, TX 78572",139000,3,3,1865,Mission,78572,TX,26.2431482440337,-98.4081180483453,"{'x': -98.40791059199995, 'y': 26.24310113100006, 'spatialReference': {'wkid': 4326, 'latestWkid': 4326}}"
302,311,"1905 Selena St Mission, TX 78572 Mission, TX 78572 Mission, TX 78572 Mission, TX 78572",158000,3,2,1414,Mission,78572,TX,26.2027764017087,-98.2959028664286,"{'x': -98.29710414999994, 'y': 26.202950445000056, 'spatialReference': {'wkid': 4326, 'latestWkid': 4326}}"
303,314,"810 Hilda St Mission, TX 78572 Mission, TX 78572 Mission, TX 78572 Mission, TX 78572",105000,3,2,1200,Mission,78572,TX,26.2262684482944,-98.3328193481064,"{'x': -98.33319806799994, 'y': 26.22626922300003, 'spatialReference': {'wkid': 4326, 'latestWkid': 4326}}"
304,315,"2821 Silver Oak Dr Mission, TX 78572 Mission, TX 78572 Mission, TX 78572 Mission, TX 78572",221500,3,2,1751,Mission,78572,TX,26.2280628113049,-98.3767135906025,"{'x': -98.34179830399995, 'y': 26.238717000000065, 'spatialReference': {'wkid': 4326, 'latestWkid': 4326}}"
305,316,"2217 Bobolink Circle W Cir Palmview, TX 78572 Palmview, TX 78572 Palmview, TX 78572 Palmview, TX 78572",69000,2,1,1149,Palmview,78572,TX,26.2280628113049,-98.3767135906025,"{'x': -98.37375206999997, 'y': 26.21346062600003, 'spatialReference': {'wkid': 4326, 'latestWkid': 4326}}"
306,317,"2010 Trevino Dr Mission, TX 78572 Mission, TX 78572 Mission, TX 78572 Mission, TX 78572",124000,2,3,1447,Mission,78572,TX,26.2458747957847,-98.4098441899854,"{'x': -98.40974997399996, 'y': 26.246775719000027, 'spatialReference': {'wkid': 4326, 'latestWkid': 4326}}"
307,318,"2101 Green Gate Cir W Palmview, TX 78572 Palmview, TX 78572 Palmview, TX 78572 Palmview, TX 78572",95000,2,1,1140,Palmview,78572,TX,26.2280628113049,-98.3767135906025,"{'x': -98.37349461899998, 'y': 26.214832296000054, 'spatialReference': {'wkid': 4326, 'latestWkid': 4326}}"
308,320,"607 Magnolia St Palmview, TX 78572 Palmview, TX 78572 Palmview, TX 78572 Palmview, TX 78572",122287,4,3,1609,Palmview,78572,TX,26.2280628113049,-98.3767135906025,"{'x': -98.40986742399997, 'y': 26.23377093000005, 'spatialReference': {'wkid': 4326, 'latestWkid': 4326}}"
309,324,"3505 Oriole Dr Mission, TX 78572 Mission, TX 78572 Mission, TX 78572 Mission, TX 78572",196241,3,2,2141,Mission,78572,TX,26.2280628113049,-98.3767135906025,"{'x': -98.37182151299999, 'y': 26.192086481000047, 'spatialReference': {'wkid': 4326, 'latestWkid': 4326}}"
310,327,"600 S Castillos Y Diamantes Mission Tx Mission, TX 78572 Mission, TX 78572 Mission, TX 78572 Mission, TX 78572",179726,3,2,2141,Mission,78572,TX,26.2280628113049,-98.3767135906025,"{'x': -98.35626599999995, 'y': 26.212130998000077, 'spatialReference': {'wkid': 4326, 'latestWkid': 4326}}"
311,329,"3507 Oriole Dr Mission, TX 78572 Mission, TX 78572 Mission, TX 78572 Mission, TX 78572",209255,3,3,1783,Mission,78572,TX,26.2280628113049,-98.3767135906025,"{'x': -98.37182151299999, 'y': 26.192086481000047, 'spatialReference': {'wkid': 4326, 'latestWkid': 4326}}"
312,331,"4201 Santa Lydia St Mission, TX 78572 Mission, TX 78572 Mission, TX 78572 Mission, TX 78572",195000,3,3,2196,Mission,78572,TX,26.1612232038737,-98.2995233036636,"{'x': -98.30001648399997, 'y': 26.159356332000073, 'spatialReference': {'wkid': 4326, 'latestWkid': 4326}}"
313,356,"810 Bluebird Pharr, TX 0 Pharr, TX 0 Pharr, TX 0 Pharr, TX 0",159500,3,2,1504,Pharr,0,TX,26.2272769709241,-98.1896956699533,"{'x': -98.18972579399997, 'y': 26.227066326000056, 'spatialReference': {'wkid': 4326, 'latestWkid': 4326}}"
314,357,"803 Delta Dr Pharr, TX 78577 Pharr, TX 78577 Pharr, TX 78577 Pharr, TX 78577",168000,3,2,1912,Pharr,78577,TX,26.1611495550282,-98.1760338079856,"{'x': -98.17605857099994, 'y': 26.161014289000036, 'spatialReference': {'wkid': 4326, 'latestWkid': 4326}}"
315,358,"1017 E Alan St Pharr, TX 78577 Pharr, TX 78577 Pharr, TX 78577 Pharr, TX 78577",89000,3,2,1294,Pharr,78577,TX,26.2081678,-98.170227,"{'x': -98.17025437699999, 'y': 26.20794926700006, 'spatialReference': {'wkid': 4326, 'latestWkid': 4326}}"
316,359,"912 E Azucar Ave Pharr, TX 78577 Pharr, TX 78577 Pharr, TX 78577 Pharr, TX 78577",195000,4,3,2073,Pharr,78577,TX,26.1506138430391,-98.1910396419237,"{'x': -98.16697328999999, 'y': 26.238578733000054, 'spatialReference': {'wkid': 4326, 'latestWkid': 4326}}"
317,360,"520 E Canela Ave Pharr, TX 78577 Pharr, TX 78577 Pharr, TX 78577 Pharr, TX 78577",109474,3,2,1786,Pharr,78577,TX,26.2364154919582,-98.1711184920371,"{'x': -98.17107237099998, 'y': 26.236625649000075, 'spatialReference': {'wkid': 4326, 'latestWkid': 4326}}"
318,361,"2202 Radiant Ln Edinburg, TX 78542 Edinburg, TX 78542 Edinburg, TX 78542 Edinburg, TX 78542",230000,3,4,2035,Edinburg,78542,TX,26.4519957109194,-98.0843110434917,"{'x': -98.14417989199995, 'y': 26.27626214000003, 'spatialReference': {'wkid': 4326, 'latestWkid': 4326}}"
319,362,"714 N Esperanza St Pharr, TX 78577 Pharr, TX 78577 Pharr, TX 78577 Pharr, TX 78577",89000,3,2,1158,Pharr,78577,TX,26.2019533905791,-98.1892605472447,"{'x': -98.18924169699994, 'y': 26.202535649000026, 'spatialReference': {'wkid': 4326, 'latestWkid': 4326}}"
320,363,"2412 S Hibiscus St Pharr, TX 78577 Pharr, TX 78577 Pharr, TX 78577 Pharr, TX 78577",140000,3,2,1525,Pharr,78577,TX,26.1694031471021,-98.1996006630169,"{'x': -98.19958211699998, 'y': 26.169157131000077, 'spatialReference': {'wkid': 4326, 'latestWkid': 4326}}"
321,364,"2304 Yellowfin Ave Pharr, TX 78577 Pharr, TX 78577 Pharr, TX 78577 Pharr, TX 78577",129900,3,2,1204,Pharr,78577,TX,26.1684391090839,-98.1907474579686,"{'x': -98.19050791699999, 'y': 26.16838299500006, 'spatialReference': {'wkid': 4326, 'latestWkid': 4326}}"
322,365,"811 W Arapaho Dr Pharr, TX 78577 Pharr, TX 78577 Pharr, TX 78577 Pharr, TX 78577",255000,4,3,2804,Pharr,78577,TX,26.2398094634738,-98.1676766592345,"{'x': -98.18147474999995, 'y': 26.24193900000006, 'spatialReference': {'wkid': 4326, 'latestWkid': 4326}}"
323,366,"910 W Arapaho Ave Pharr, TX 78577 Pharr, TX 78577 Pharr, TX 78577 Pharr, TX 78577",249900,4,4,2058,Pharr,78577,TX,26.2395654017105,-98.1671458601128,"{'x': -98.18147474999995, 'y': 26.24193900000006, 'spatialReference': {'wkid': 4326, 'latestWkid': 4326}}"
324,367,"2605 N Poinsettia Ln Pharr, TX 78577 Pharr, TX 78577 Pharr, TX 78577 Pharr, TX 78577",129900,3,2,1093,Pharr,78577,TX,26.2189737081533,-98.1958921377825,"{'x': -98.19603062099998, 'y': 26.217739034000033, 'spatialReference': {'wkid': 4326, 'latestWkid': 4326}}"
325,368,"2002 S Erica St Pharr, TX 78577 Pharr, TX 78577 Pharr, TX 78577 Pharr, TX 78577",270000,4,4,2845,Pharr,78577,TX,26.172803937605,-98.1943812329161,"{'x': -98.19444108399995, 'y': 26.172244215000035, 'spatialReference': {'wkid': 4326, 'latestWkid': 4326}}"
326,369,"303 Ohara Dr Pharr, TX 78577 Pharr, TX 78577 Pharr, TX 78577 Pharr, TX 78577",95700,3,2,1594,Pharr,78577,TX,26.1654556643246,-98.1846951943401,"{'x': -98.18459481899998, 'y': 26.165365333000068, 'spatialReference': {'wkid': 4326, 'latestWkid': 4326}}"
327,370,"1204 E Nell Pool Dr Pharr, TX 78577 Pharr, TX 78577 Pharr, TX 78577 Pharr, TX 78577",117000,3,2,1235,Pharr,78577,TX,26.2271581907158,-98.1630644924887,"{'x': -98.16305254899999, 'y': 26.227354758000047, 'spatialReference': {'wkid': 4326, 'latestWkid': 4326}}"
328,371,"900 E Scurlock Pharr, TX 78577 Pharr, TX 78577 Pharr, TX 78577 Pharr, TX 78577",79000,2,1,900,Pharr,78577,TX,26.1180751511302,-98.1817565956895,"{'x': -98.18169684999998, 'y': 26.118304933000047, 'spatialReference': {'wkid': 4326, 'latestWkid': 4326}}"
329,372,"1305 Rhett Dr # 31 Pharr, TX 78577 Pharr, TX 78577 Pharr, TX 78577 Pharr, TX 78577",219000,4,3,3236,Pharr,78577,TX,26.1647128585338,-98.1752730370392,"{'x': -98.17533478299998, 'y': 26.164516797000033, 'spatialReference': {'wkid': 4326, 'latestWkid': 4326}}"
330,373,"2409 S Dominique Dr Pharr, TX 78577 Pharr, TX 78577 Pharr, TX 78577 Pharr, TX 78577",185000,3,3,2191,Pharr,78577,TX,26.1696431646854,-98.2034030471812,"{'x': -98.20235229999997, 'y': 26.172985996000023, 'spatialReference': {'wkid': 4326, 'latestWkid': 4326}}"
331,374,"2715 Melanie Dr Pharr, TX 78577 Pharr, TX 78577 Pharr, TX 78577 Pharr, TX 78577",69800,2,3,1368,Pharr,78577,TX,26.1605981697623,-98.1732000838061,"{'x': -98.17333091699999, 'y': 26.160637202000032, 'spatialReference': {'wkid': 4326, 'latestWkid': 4326}}"
332,375,"608 W Falcon Ave Pharr, TX 78577 Pharr, TX 78577 Pharr, TX 78577 Pharr, TX 78577",139999,3,2,1668,Pharr,78577,TX,26.1374903635965,-98.2003575380282,"{'x': -98.20039559799994, 'y': 26.137271209000062, 'spatialReference': {'wkid': 4326, 'latestWkid': 4326}}"
333,376,"807 S Juniper Cir Pharr, TX 78577 Pharr, TX 78577 Pharr, TX 78577 Pharr, TX 78577",191000,3,3,1869,Pharr,78577,TX,26.1849342951323,-98.1717328953638,"{'x': -98.17180917199994, 'y': 26.185205034000035, 'spatialReference': {'wkid': 4326, 'latestWkid': 4326}}"
334,377,"8604 S Estrella St Pharr, TX 0 Pharr, TX 0 Pharr, TX 0 Pharr, TX 0",176000,4,2,1765,Pharr,0,TX,26.1149957622261,-98.211101194787,"{'x': -98.21090059199997, 'y': 26.114959215000056, 'spatialReference': {'wkid': 4326, 'latestWkid': 4326}}"
335,378,"1400 W Jeff Dr Pharr, TX 78577 Pharr, TX 78577 Pharr, TX 78577 Pharr, TX 78577",106000,3,2,1212,Pharr,78577,TX,26.1294041627462,-98.2129251977438,"{'x': -98.21295454199998, 'y': 26.129210300000068, 'spatialReference': {'wkid': 4326, 'latestWkid': 4326}}"
336,379,"708 W Green Jay Ave Pharr, TX 78577 Pharr, TX 78577 Pharr, TX 78577 Pharr, TX 78577",86000,3,2,1345,Pharr,78577,TX,26.1386276509494,-98.2027228676047,"{'x': -98.20275770999996, 'y': 26.13843627500006, 'spatialReference': {'wkid': 4326, 'latestWkid': 4326}}"
337,380,"3400 N Tequila Dr Pharr, TX 78577 Pharr, TX 78577 Pharr, TX 78577 Pharr, TX 78577",124900,3,2,1486,Pharr,78577,TX,26.2218652272177,-98.1673570272123,"{'x': -98.16755140799995, 'y': 26.22189495300006, 'spatialReference': {'wkid': 4326, 'latestWkid': 4326}}"
338,381,"1807 W Ventura Dr Pharr, TX 78577 Pharr, TX 78577 Pharr, TX 78577 Pharr, TX 78577",220000,4,3,2073,Pharr,78577,TX,26.1506138430391,-98.1910396419237,"{'x': -98.20757554499994, 'y': 26.16566073000007, 'spatialReference': {'wkid': 4326, 'latestWkid': 4326}}"
339,382,"327 Ashley Dr Pharr, TX 78577 Pharr, TX 78577 Pharr, TX 78577 Pharr, TX 78577",157900,4,4,2544,Pharr,78577,TX,26.160336635033,-98.1858048330107,"{'x': -98.18228712599995, 'y': 26.158586300000024, 'spatialReference': {'wkid': 4326, 'latestWkid': 4326}}"
340,383,"706 Goldfinch Pharr, TX 78577 Pharr, TX 78577 Pharr, TX 78577 Pharr, TX 78577",205000,3,3,2203,Pharr,78577,TX,26.2256118073882,-98.1877927882827,"{'x': -98.18782670999997, 'y': 26.225420300000053, 'spatialReference': {'wkid': 4326, 'latestWkid': 4326}}"
341,384,"6900 S Naranja Ln Pharr, TX 78577 Pharr, TX 78577 Pharr, TX 78577 Pharr, TX 78577",129900,3,2,1476,Pharr,78577,TX,26.1292746765692,-98.2046331486696,"{'x': -98.20438960999996, 'y': 26.129233131000035, 'spatialReference': {'wkid': 4326, 'latestWkid': 4326}}"
342,385,"409 W Kelly Ave Pharr, TX 78577 Pharr, TX 78577 Pharr, TX 78577 Pharr, TX 78577",137000,3,2,1440,Pharr,78577,TX,26.1919018647626,-98.1889384275397,"{'x': -98.18925542499994, 'y': 26.192046722000043, 'spatialReference': {'wkid': 4326, 'latestWkid': 4326}}"
343,386,"1207 E Valle Vista Ave Pharr, TX 78577 Pharr, TX 78577 Pharr, TX 78577 Pharr, TX 78577",113000,4,2,1226,Pharr,78577,TX,26.2300142853596,-98.1624603117718,"{'x': -98.16249537199997, 'y': 26.22979120900004, 'spatialReference': {'wkid': 4326, 'latestWkid': 4326}}"
344,387,"5902 La Ramada St Pharr, TX 78577 Pharr, TX 78577 Pharr, TX 78577 Pharr, TX 78577",109900,3,2,1294,Pharr,78577,TX,26.1351478422365,-98.1976797843967,"{'x': -98.19763009199994, 'y': 26.135056215000077, 'spatialReference': {'wkid': 4326, 'latestWkid': 4326}}"
345,388,"4201 N Palm Dr Pharr, TX 78577 Pharr, TX 78577 Pharr, TX 78577 Pharr, TX 78577",119000,4,2,2333,Pharr,78577,TX,26.2323477426175,-98.19125704844,"{'x': -98.19118009899995, 'y': 26.232491022000033, 'spatialReference': {'wkid': 4326, 'latestWkid': 4326}}"
346,389,"5906 Ebony St Pharr, TX 78577 Pharr, TX 78577 Pharr, TX 78577 Pharr, TX 78577",260000,3,3,2098,Pharr,78577,TX,26.1506138430391,-98.1910396419237,"{'x': -98.17012948999997, 'y': 26.23487052300004, 'spatialReference': {'wkid': 4326, 'latestWkid': 4326}}"
347,390,"7213 S San Marcos St Pharr, TX 78577 Pharr, TX 78577 Pharr, TX 78577 Pharr, TX 78577",75000,3,1,1108,Pharr,78577,TX,26.1234474427095,-98.1851371875681,"{'x': -98.18527188999997, 'y': 26.123067011000046, 'spatialReference': {'wkid': 4326, 'latestWkid': 4326}}"
348,391,"2103 N Days Cir Pharr, TX 78577 Pharr, TX 78577 Pharr, TX 78577 Pharr, TX 78577",118000,3,2,1220,Pharr,78577,TX,26.2127811277002,-98.1765291340284,"{'x': -98.17630811699996, 'y': 26.21274413100008, 'spatialReference': {'wkid': 4326, 'latestWkid': 4326}}"
349,392,"805 W Arapaho Ave Pharr, TX 0 Pharr, TX 0 Pharr, TX 0 Pharr, TX 0",229000,4,2,1838,Pharr,0,TX,26.2398133703725,-98.1677094169315,"{'x': -98.18147474999995, 'y': 26.24193900000006, 'spatialReference': {'wkid': 4326, 'latestWkid': 4326}}"
350,393,"1110 W Green Jay Ave Pharr, TX 78577 Pharr, TX 78577 Pharr, TX 78577 Pharr, TX 78577",142900,4,2,1556,Pharr,78577,TX,26.1390709924809,-98.2070073784897,"{'x': -98.20882600899995, 'y': 26.139244242000075, 'spatialReference': {'wkid': 4326, 'latestWkid': 4326}}"
351,394,"222 Javelina Dr Pharr, TX 78577 Pharr, TX 78577 Pharr, TX 78577 Pharr, TX 78577",335000,3,3,3116,Pharr,78577,TX,26.1506138430391,-98.1910396419237,"{'x': -98.19194999999996, 'y': 26.195340000000044, 'spatialReference': {'wkid': 4326, 'latestWkid': 4326}}"
352,395,"806 W Iroquois Ave Pharr, TX 78577 Pharr, TX 78577 Pharr, TX 78577 Pharr, TX 78577",265000,3,4,2104,Pharr,78577,TX,26.1506138430391,-98.1910396419237,"{'x': -98.18121149999996, 'y': 26.243509500000073, 'spatialReference': {'wkid': 4326, 'latestWkid': 4326}}"
353,396,"7400 S Dianne Dr Pharr, TX 78577 Pharr, TX 78577 Pharr, TX 78577 Pharr, TX 78577",40000,3,2,1167,Pharr,78577,TX,26.123054742256,-98.1945860687681,"{'x': -98.19452173399998, 'y': 26.122862242000053, 'spatialReference': {'wkid': 4326, 'latestWkid': 4326}}"
354,397,"2409 Rhett Dr Pharr, TX 78577 Pharr, TX 78577 Pharr, TX 78577 Pharr, TX 78577",189900,3,4,2251,Pharr,78577,TX,26.1657188651133,-98.1784787930651,"{'x': -98.17865741399999, 'y': 26.16583146000005, 'spatialReference': {'wkid': 4326, 'latestWkid': 4326}}"
355,398,"1802 S Erica St Pharr, TX 78577 Pharr, TX 78577 Pharr, TX 78577 Pharr, TX 78577",239000,3,2,2315,Pharr,78577,TX,26.1506138430391,-98.1910396419237,"{'x': -98.19413958399997, 'y': 26.17401721500005, 'spatialReference': {'wkid': 4326, 'latestWkid': 4326}}"
356,399,"503 Melanie Dr Pharr, TX 78577 Pharr, TX 78577 Pharr, TX 78577 Pharr, TX 78577",248000,5,5,4013,Pharr,78577,TX,26.1583185623072,-98.1787373262908,"{'x': -98.17877826799997, 'y': 26.158108326000047, 'spatialReference': {'wkid': 4326, 'latestWkid': 4326}}"
357,400,"804 W Warren St Pharr, TX 78577 Pharr, TX 78577 Pharr, TX 78577 Pharr, TX 78577",78950,3,2,1252,Pharr,78577,TX,26.2097298518397,-98.1921032201426,"{'x': -98.19211851499995, 'y': 26.209556391000035, 'spatialReference': {'wkid': 4326, 'latestWkid': 4326}}"
358,401,"1001 Regal Dr Pharr, TX 78577 Pharr, TX 78577 Pharr, TX 78577 Pharr, TX 78577",129900,2,2,1397,Pharr,78577,TX,26.2265031635931,-98.1929521868746,"{'x': -98.19290220599999, 'y': 26.226544674000024, 'spatialReference': {'wkid': 4326, 'latestWkid': 4326}}"
359,402,"1409 Calle Espana Pharr, TX 78577 Pharr, TX 78577 Pharr, TX 78577 Pharr, TX 78577",325000,4,8,3977,Pharr,78577,TX,26.1661871799986,-98.206179988302,"{'x': -98.20614293499995, 'y': 26.16636978400004, 'spatialReference': {'wkid': 4326, 'latestWkid': 4326}}"
360,403,"2102 S Angelina Marie Pharr, TX 78577 Pharr, TX 78577 Pharr, TX 78577 Pharr, TX 78577",997000,5,7,7031,Pharr,78577,TX,26.173186781271,-98.2034591802577,"{'x': -98.20349892399997, 'y': 26.172507574000065, 'spatialReference': {'wkid': 4326, 'latestWkid': 4326}}"
361,404,"2000 S Villa Real Dr Pharr, TX 78577 Pharr, TX 78577 Pharr, TX 78577 Pharr, TX 78577",199000,4,4,2575,Pharr,78577,TX,26.1725641422593,-98.1955521798152,"{'x': -98.19535856599998, 'y': 26.172523299000034, 'spatialReference': {'wkid': 4326, 'latestWkid': 4326}}"
362,405,"912 Regal Dr Pharr, TX 78577 Pharr, TX 78577 Pharr, TX 78577 Pharr, TX 78577",165000,3,2,1760,Pharr,78577,TX,26.2267487751916,-98.1922279156108,"{'x': -98.19226476799997, 'y': 26.226515293000034, 'spatialReference': {'wkid': 4326, 'latestWkid': 4326}}"
363,406,"1307 E Maurer St Pharr, TX 78577 Pharr, TX 78577 Pharr, TX 78577 Pharr, TX 78577",113000,3,2,1474,Pharr,78577,TX,26.1844615793726,-98.1703521353069,"{'x': -98.17042415199995, 'y': 26.184318275000066, 'spatialReference': {'wkid': 4326, 'latestWkid': 4326}}"
